attack_label,log_type,eventdate,type,dvc_host,dvc_group,action,src_port,dst_port,application,src_zone,dst_zone,signature,id_signature,message,evento,server_bytes,count,suppression_start_time,page,src_location,suppression_end_time,dst_region,cci,dst_location,dst_country,dst_timezone,user,ur_normalized,resp_cnt,site,src_longitude,client_bytes,ccl,numbytes,conn_duration,event_type,app,url,dst_latitude,policy,dst_longitude,other_categories,src_time,req_cnt,dst_zipcode,traffic_type,category,src_region,appcategory,userkey,netskope_pop,http_transaction_count,ssl_decrypt_policy,bypass_traffic,user_generated,bypass_reason,resp_content_len,conn_endtime,domain,conn_starttime,browser_session_id,request_id,incident_id,_id,threat_source_id,connection_id,policy_id,app_session_id,transaction_id,dlp_parent_id,dlp_incident_id,malsite_id,severity_level_id,host_name,users,endpoint_id,external_id,_eventdate,Unnamed: 0,ts,metadata.origin.data.agent,data,sm.dsn,sm.mailer,sm.to,sm.stat,sm.xdelay,sm.pri,sm.relay,sm.delay,tls.cipher,tls.verify,tls.version,pps.agent,guid,msg.normalizedHeader.message-id,msg.header.message-id,connection.sid,metadata.origin.data.cid,filter.qid,filter.modules.dmarc.srvid,id,metadata.customerId,sm.qid,pps.cid,sm.msgid,filter.origGuid,local_quarantine.body.folder_id,local_quarantine.body.msg_id
0,0,,,,,,,,,,,,,,12660.0,,,,,,,,,,,,,,,,,,,,,,,,,,,,,,,,,,,,,,,,,,,,,,,,,,,,,,,,,,,,,,,,0.9641393508485406,64.0,2.0,60.0,9.0,2.0,0.0,158.0,1.0,0.175188603325768,58.0,9566.0,2.0,3.0,1.0,2.0,0.0,0.0,0.0,0.0,0.0,0.0,0.0,0.9639137922945192,0.0,0.7934395751389398,0.0,0.0,0.0,0.0,0.0
0,0,,,,,,,,,,,,,,13491.0,,,,,,,,,,,,,,,,,,,,,,,,,,,,,,,,,,,,,,,,,,,,,,,,,,,,,,,,,,,,,,,,0.9641389223034982,66.0,2.0,62.0,9.0,2.0,0.0,158.0,2.0,0.6566765465358972,62.0,54669.0,2.0,3.0,1.0,2.0,0.0,0.0,0.0,0.0,0.0,0.0,0.0,0.9639133035665411,0.0,0.788688153892702,0.0,0.0,0.0,0.0,0.0
0,0,,,,,,,,,,,,,,62843.0,,,,,,,,,,,,,,,,,,,,,,,,,,,,,,,,,,,,,,,,,,,,,,,,,,,,,,,,,,,,,,,,0.4927869523402622,4885.0,10.0,4383.0,9.0,1.0,0.0,156.0,5.0,0.6006447844267524,58.0,53312.0,4.0,3.0,2.0,10.0,0.0,0.0,0.0,0.0,0.0,0.0,0.0,0.4936844719438217,0.0,0.5379952457477787,0.0,0.0,0.0,0.0,0.0
0,0,,,,,,,,,,,,,,69673.0,,,,,,,,,,,,,,,,,,,,,,,,,,,,,,,,,,,,,,,,,,,,,,,,,,,,,,,,,,,,,,,,0.9623288013698832,228.0,11.0,205.0,9.0,1.0,0.0,174.0,5.0,0.3122551584117284,66.0,18539.0,3.0,3.0,1.0,11.0,0.0,0.0,0.0,0.0,0.0,0.0,0.0,0.961301859510536,0.0,0.9348263207554034,0.0,0.0,0.0,0.0,0.0
0,0,,,,,,,,,,,,,,14355.0,,,,,,,,,,,,,,,,,,,,,,,,,,,,,,,,,,,,,,,,,,,,,,,,,,,,,,,,,,,,,,,,0.8429587106683915,168.0,2.0,143.0,9.0,1.0,0.0,170.0,1.0,0.276609890013685,57.0,13429.0,3.0,3.0,1.0,2.0,0.0,0.0,0.0,0.0,0.0,0.0,0.0,0.8450377798860985,0.0,0.8057382633406234,0.0,0.0,0.0,0.0,0.0
0,0,,,,,,,,,,,,,,63138.0,,,,,,,,,,,,,,,,,,,,,,,,,,,,,,,,,,,,,,,,,,,,,,,,,,,,,,,,,,,,,,,,0.3280444407329408,25045.0,10.0,21253.0,9.0,2.0,0.0,140.0,3.0,0.2941634065918984,59.0,12475.0,3.0,3.0,2.0,10.0,0.0,0.0,0.0,0.0,0.0,0.0,0.0,0.3299982644774212,0.0,0.5015244596131969,0.0,0.0,0.0,0.0,0.0
0,0,,,,,,,,,,,,,,77724.0,,,,,,,,,,,,,,,,,,,,,,,,,,,,,,,,,,,,,,,,,,,,,,,,,,,,,,,,,,,,,,,,0.8429747107415347,205.0,13.0,174.0,2.0,1.0,0.0,4250.0,3.0,0.0028734569564199,529.0,3.0,4.0,3.0,1.0,13.0,0.0,0.0,0.0,0.0,0.0,0.0,0.0,0.845056075230456,0.0,0.8057812266642661,0.0,0.0,0.0,0.0,0.0
0,0,,,,,,,,,,,,,,87166.0,,,,,,,,,,,,,,,,,,,,,,,,,,,,,,,,,,,,,,,,,,,,,,,,,,,,,,,,,,,,,,,,0.4928304306263366,4966.0,14.0,4450.0,9.0,1.0,0.0,156.0,1.0,0.0338409301843731,55.0,3640.0,4.0,3.0,2.0,14.0,0.0,0.0,0.0,0.0,0.0,0.0,0.0,0.4937270836981409,0.0,0.073995737751383,0.0,0.0,0.0,0.0,0.0
0,0,,,,,,,,,,,,,,52861.0,,,,,,,,,,,,,,,,,,,,,,,,,,,,,,,,,,,,,,,,,,,,,,,,,,,,,,,,,,,,,,,,0.8809078515850473,442.0,9.0,377.0,9.0,1.0,0.0,147.0,5.0,0.1082023545801544,71.0,24187.0,3.0,3.0,1.0,9.0,0.0,0.0,0.0,0.0,0.0,0.0,0.0,0.8830344566286877,0.0,0.7822261743700093,0.0,0.0,0.0,0.0,0.0
0,0,,,,,,,,,,,,,,1184.0,,,,,,,,,,,,,,,,,,,,,,,,,,,,,,,,,,,,,,,,,,,,,,,,,,,,,,,,,,,,,,,,0.969133711417139,299.0,1.0,268.0,9.0,2.0,0.0,186.0,3.0,0.0482270600148102,46.0,4302.0,2.0,3.0,1.0,1.0,0.0,0.0,0.0,0.0,0.0,0.0,0.0,0.9692075389164388,0.0,0.9337698172190502,0.0,0.0,0.0,0.0,0.0
0,0,,,,,,,,,,,,,,69270.0,,,,,,,,,,,,,,,,,,,,,,,,,,,,,,,,,,,,,,,,,,,,,,,,,,,,,,,,,,,,,,,,0.8809371539242576,499.0,12.0,423.0,0.0,1.0,0.0,7489.0,0.0,0.0022768660992442,877.0,5.0,4.0,3.0,1.0,12.0,0.0,0.0,0.0,0.0,0.0,0.0,0.0,0.8830631922149975,0.0,0.8422464079392672,0.0,0.0,0.0,0.0,0.0
0,0,,,,,,,,,,,,,,17733.0,,,,,,,,,,,,,,,,,,,,,,,,,,,,,,,,,,,,,,,,,,,,,,,,,,,,,,,,,,,,,,,,2.082821561613657e-05,542.0,3.0,31.0,8.0,1.0,0.0,124.0,3.0,0.0778114222843972,55.0,25161.0,3.0,3.0,1.0,3.0,0.0,0.0,0.0,0.0,0.0,0.0,0.0,2.3889909675056664e-05,0.0,0.1785337310329307,0.0,0.0,0.0,0.0,0.0
0,0,,,,,,,,,,,,,,75763.0,,,,,,,,,,,,,,,,,,,,,,,,,,,,,,,,,,,,,,,,,,,,,,,,,,,,,,,,,,,,,,,,0.8809511074191197,537.0,12.0,454.0,9.0,1.0,0.0,147.0,2.0,0.7796073756287674,69.0,52412.0,3.0,3.0,1.0,12.0,0.0,0.0,0.0,0.0,0.0,0.0,0.0,0.883079156429614,0.0,0.8165028041960568,0.0,0.0,0.0,0.0,0.0
0,0,,,,,,,,,,,,,,48197.0,,,,,,,,,,,,,,,,,,,,,,,,,,,,,,,,,,,,,,,,,,,,,,,,,,,,,,,,,,,,,,,,0.4578030222393371,258.0,9.0,227.0,3.0,2.0,0.0,726.0,0.0,0.4387590553704629,542.0,33188.0,6.0,3.0,0.0,8.0,0.0,0.0,0.0,0.0,0.0,0.0,0.0,0.4584756383470883,0.0,0.5440218668516881,0.0,0.0,0.0,0.0,0.0
0,0,,,,,,,,,,,,,,8055.0,,,,,,,,,,,,,,,,,,,,,,,,,,,,,,,,,,,,,,,,,,,,,,,,,,,,,,,,,,,,,,,,0.9624958602916824,505.0,1.0,454.0,9.0,1.0,0.0,174.0,3.0,0.3190159517507017,63.0,19077.0,3.0,3.0,1.0,1.0,0.0,0.0,0.0,0.0,0.0,0.0,0.0,0.9614662629349784,0.0,0.9352895947686418,0.0,0.0,0.0,0.0,0.0
0,0,,,,,,,,,,,,,,37249.0,,,,,,,,,,,,,,,,,,,,,,,,,,,,,,,,,,,,,,,,,,,,,,,,,,,,,,,,,,,,,,,,0.2224702471891636,25193.0,6.0,21533.0,9.0,1.0,0.0,156.0,1.0,0.471385224265558,62.0,29872.0,3.0,3.0,1.0,6.0,0.0,0.0,0.0,0.0,0.0,0.0,0.0,0.2320913235224421,0.0,0.604397989897648,0.0,0.0,0.0,0.0,0.0
0,0,,,,,,,,,,,,,,10615.0,,,,,,,,,,,,,,,,,,,,,,,,,,,,,,,,,,,,,,,,,,,,,,,,,,,,,,,,,,,,,,,,0.9692787115983894,427.0,2.0,380.0,9.0,2.0,0.0,186.0,6.0,0.6372455914112498,49.0,51062.0,2.0,3.0,1.0,2.0,0.0,0.0,0.0,0.0,0.0,0.0,0.0,0.969349142457368,0.0,0.7991044371431306,0.0,0.0,0.0,0.0,0.0
0,0,,,,,,,,,,,,,,72952.0,,,,,,,,,,,,,,,,,,,,,,,,,,,,,,,,,,,,,,,,,,,,,,,,,,,,,,,,,,,,,,,,0.9626005662356272,689.0,12.0,622.0,9.0,1.0,0.0,174.0,3.0,0.2937803150563166,64.0,16719.0,3.0,3.0,1.0,12.0,0.0,0.0,0.0,0.0,0.0,0.0,0.0,0.9615828276580464,0.0,0.9355879335310938,0.0,0.0,0.0,0.0,0.0
0,0,,,,,,,,,,,,,,5752.0,,,,,,,,,,,,,,,,,,,,,,,,,,,,,,,,,,,,,,,,,,,,,,,,,,,,,,,,,,,,,,,,0.4578931917919944,380.0,1.0,332.0,9.0,2.0,0.0,138.0,1.0,0.5240475137830642,52.0,42476.0,3.0,4.0,1.0,0.0,0.0,0.0,0.0,0.0,0.0,0.0,0.0,0.458565659396358,0.0,0.4921552389798453,0.0,0.0,0.0,0.0,0.0
0,0,,,,,,,,,,,,,,68021.0,,,,,,,,,,,,,,,,,,,,,,,,,,,,,,,,,,,,,,,,,,,,,,,,,,,,,,,,,,,,,,,,0.000860002866676,19397.0,11.0,16377.0,10.0,2.0,0.0,142.0,3.0,0.8576060464641914,54.0,47219.0,3.0,3.0,1.0,11.0,0.0,0.0,0.0,0.0,0.0,0.0,0.0,0.0008408103593895,0.0,0.5845023219465276,0.0,0.0,0.0,0.0,0.0
0,0,,,,,,,,,,,,,,70253.0,,,,,,,,,,,,,,,,,,,,,,,,,,,,,,,,,,,,,,,,,,,,,,,,,,,,,,,,,,,,,,,,0.8811948284627109,1057.0,12.0,902.0,2.0,1.0,0.0,4367.0,3.0,0.0239688289141914,293.0,3.0,4.0,3.0,1.0,12.0,0.0,0.0,0.0,0.0,0.0,0.0,0.0,0.8833202160703234,0.0,0.8426739625277508,0.0,0.0,0.0,0.0,0.0
0,0,,,,,,,,,,,,,,29282.0,,,,,,,,,,,,,,,,,,,,,,,,,,,,,,,,,,,,,,,,,,,,,,,,,,,,,,,,,,,,,,,,0.7113348545198708,25242.0,5.0,21819.0,9.0,2.0,0.0,129.0,1.0,0.319527666167856,416.0,22506.0,4.0,3.0,2.0,5.0,0.0,0.0,0.0,0.0,0.0,0.0,0.0,0.7156347270556298,0.0,0.6705427701991276,0.0,0.0,0.0,0.0,0.0
0,0,,,,,,,,,,,,,,8467.0,,,,,,,,,,,,,,,,,,,,,,,,,,,,,,,,,,,,,,,,,,,,,,,,,,,,,,,,,,,,,,,,0.4310596207064138,482.0,2.0,427.0,8.0,2.0,0.0,142.0,1.0,0.0924676108223669,364.0,21852.0,3.0,3.0,2.0,2.0,0.0,0.0,0.0,0.0,0.0,0.0,0.0,0.4347843788553159,0.0,0.5642377812032777,0.0,0.0,0.0,0.0,0.0
0,0,,,,,,,,,,,,,,28867.0,,,,,,,,,,,,,,,,,,,,,,,,,,,,,,,,,,,,,,,,,,,,,,,,,,,,,,,,,,,,,,,,0.964572181341406,1066.0,4.0,910.0,9.0,2.0,0.0,158.0,3.0,0.2005593667775004,61.0,12655.0,2.0,3.0,1.0,4.0,0.0,0.0,0.0,0.0,0.0,0.0,0.0,0.9643292110757488,0.0,0.8897379651894199,0.0,0.0,0.0,0.0,0.0
0,0,,,,,,,,,,,,,,33391.0,,,,,,,,,,,,,,,,,,,,,,,,,,,,,,,,,,,,,,,,,,,,,,,,,,,,,,,,,,,,,,,,0.7114015212457967,25329.0,5.0,21897.0,13.0,2.0,0.0,158.0,6.0,0.6220351843379117,424.0,47307.0,8.0,2.0,0.0,5.0,0.0,0.0,0.0,0.0,0.0,0.0,0.0,0.7157112678212416,0.0,0.7564649935783956,0.0,0.0,0.0,0.0,0.0
0,0,,,,,,,,,,,,,,1867.0,,,,,,,,,,,,,,,,,,,,,,,,,,,,,,,,,,,,,,,,,,,,,,,,,,,,,,,,,,,,,,,,0.2228080253422504,25490.0,1.0,21791.0,0.0,1.0,0.0,7937.0,0.0,0.0046509364607149,879.0,2.0,4.0,3.0,1.0,1.0,0.0,0.0,0.0,0.0,0.0,0.0,0.0,0.2324256401651345,0.0,0.6541742671906843,0.0,0.0,0.0,0.0,0.0
0,0,,,,,,,,,,,,,,41108.0,,,,,,,,,,,,,,,,,,,,,,,,,,,,,,,,,,,,,,,,,,,,,,,,,,,,,,,,,,,,,,,,0.7114139657013029,25339.0,7.0,21906.0,9.0,2.0,0.0,129.0,3.0,0.0225025909490305,50.0,1899.0,4.0,3.0,2.0,7.0,0.0,0.0,0.0,0.0,0.0,0.0,0.0,0.7157153499954076,0.0,0.0668271103551745,0.0,0.0,0.0,0.0,0.0
0,0,,,,,,,,,,,,,,11186.0,,,,,,,,,,,,,,,,,,,,,,,,,,,,,,,,,,,,,,,,,,,,,,,,,,,,,,,,,,,,,,,,9.066399738788532e-05,654.0,2.0,143.0,8.0,1.0,0.0,124.0,2.0,0.862213141126854,53.0,63824.0,3.0,3.0,1.0,2.0,0.0,0.0,0.0,0.0,0.0,0.0,0.0,0.0001039913715267,0.0,0.0721755034376079,0.0,0.0,0.0,0.0,0.0
0,0,,,,,,,,,,,,,,26779.0,,,,,,,,,,,,,,,,,,,,,,,,,,,,,,,,,,,,,,,,,,,,,,,,,,,,,,,,,,,,,,,,0.962943507613828,1275.0,4.0,1135.0,9.0,1.0,0.0,174.0,4.0,0.1111378574152678,66.0,29191.0,3.0,3.0,1.0,4.0,0.0,0.0,0.0,0.0,0.0,0.0,0.0,0.961927805335565,0.0,0.9364999284472072,0.0,0.0,0.0,0.0,0.0
0,0,,,,,,,,,,,,,,71138.0,,,,,,,,,,,,,,,,,,,,,,,,,,,,,,,,,,,,,,,,,,,,,,,,,,,,,,,,,,,,,,,,0.9629782135165962,1315.0,12.0,1166.0,0.0,1.0,0.0,5198.0,0.0,0.0028680239270811,899.0,0.0,4.0,3.0,1.0,12.0,0.0,0.0,0.0,0.0,0.0,0.0,0.0,0.9619581256392532,0.0,0.9365945236645702,0.0,0.0,0.0,0.0,0.0
0,0,,,,,,,,,,,,,,34085.0,,,,,,,,,,,,,,,,,,,,,,,,,,,,,,,,,,,,,,,,,,,,,,,,,,,,,,,,,,,,,,,,0.8814259913609261,1563.0,5.0,1322.0,9.0,1.0,0.0,147.0,2.0,0.3053849665854006,69.0,15797.0,3.0,3.0,1.0,5.0,0.0,0.0,0.0,0.0,0.0,0.0,0.0,0.8835394579510569,0.0,0.7987462413334886,0.0,0.0,0.0,0.0,0.0
0,0,,,,,,,,,,,,,,27370.0,,,,,,,,,,,,,,,,,,,,,,,,,,,,,,,,,,,,,,,,,,,,,,,,,,,,,,,,,,,,,,,,0.9647144582954964,1408.0,4.0,1210.0,9.0,2.0,0.0,158.0,3.0,0.5030764213080305,61.0,44536.0,2.0,3.0,1.0,4.0,0.0,0.0,0.0,0.0,0.0,0.0,0.0,0.964475340741146,0.0,0.7921855343408125,0.0,0.0,0.0,0.0,0.0
0,0,,,,,,,,,,,,,,75514.0,,,,,,,,,,,,,,,,,,,,,,,,,,,,,,,,,,,,,,,,,,,,,,,,,,,,,,,,,,,,,,,,0.0003128385093564,31954.0,13.0,26062.0,1.0,2.0,0.0,4626.0,4.0,0.0044837381059922,269.0,5.0,4.0,3.0,2.0,13.0,0.0,0.0,0.0,0.0,0.0,0.0,0.0,0.0003602758824908,0.0,0.3885669966695561,0.0,0.0,0.0,0.0,0.0
0,0,,,,,,,,,,,,,,15101.0,,,,,,,,,,,,,,,,,,,,,,,,,,,,,,,,,,,,,,,,,,,,,,,,,,,,,,,,,,,,,,,,0.9704087130108908,1329.0,2.0,1172.0,9.0,2.0,0.0,186.0,6.0,0.6794314079900716,49.0,54149.0,2.0,3.0,1.0,2.0,0.0,0.0,0.0,0.0,0.0,0.0,0.0,0.9704693526474956,0.0,0.807788924686593,0.0,0.0,0.0,0.0,0.0
0,0,,,,,,,,,,,,,,80454.0,,,,,,,,,,,,,,,,,,,,,,,,,,,,,,,,,,,,,,,,,,,,,,,,,,,,,,,,,,,,,,,,0.8815148286115482,1756.0,13.0,1479.0,9.0,1.0,0.0,147.0,6.0,0.0725062538357961,71.0,20279.0,3.0,3.0,1.0,13.0,0.0,0.0,0.0,0.0,0.0,0.0,0.0,0.8836208754456011,0.0,0.8237973270812675,0.0,0.0,0.0,0.0,0.0
0,0,,,,,,,,,,,,,,70967.0,,,,,,,,,,,,,,,,,,,,,,,,,,,,,,,,,,,,,,,,,,,,,,,,,,,,,,,,,,,,,,,,0.9631111547712676,1554.0,12.0,1372.0,0.0,1.0,0.0,3431.0,1.0,0.0034197957487451,422.0,1.0,3.0,3.0,1.0,12.0,0.0,0.0,0.0,0.0,0.0,0.0,0.0,0.9620942301135867,0.0,0.936985032125991,0.0,0.0,0.0,0.0,0.0
0,0,,,,,,,,,,,,,,85152.0,,,,,,,,,,,,,,,,,,,,,,,,,,,,,,,,,,,,,,,,,,,,,,,,,,,,,,,,,,,,,,,,0.2228780254200283,25568.0,14.0,21845.0,9.0,1.0,0.0,156.0,1.0,0.2989347623924617,409.0,13239.0,3.0,3.0,1.0,14.0,0.0,0.0,0.0,0.0,0.0,0.0,0.0,0.2324820000589217,0.0,0.5828195217096886,0.0,0.0,0.0,0.0,0.0
0,0,,,,,,,,,,,,,,2522.0,,,,,,,,,,,,,,,,,,,,,,,,,,,,,,,,,,,,,,,,,,,,,,,,,,,,,,,,,,,,,,,,0.881551572814685,1855.0,1.0,1572.0,0.0,1.0,0.0,7489.0,1.0,0.0026897899176515,877.0,1.0,4.0,3.0,1.0,1.0,0.0,0.0,0.0,0.0,0.0,0.0,0.0,0.8836623824036041,0.0,0.8432440353123959,0.0,0.0,0.0,0.0,0.0
0,0,,,,,,,,,,,,,,8252.0,,,,,,,,,,,,,,,,,,,,,,,,,,,,,,,,,,,,,,,,,,,,,,,,,,,,,,,,,,,,,,,,0.970564963206204,1449.0,1.0,1278.0,14.0,2.0,0.0,754.0,58.0,0.834061066408167,999.0,68038.0,5.0,2.0,0.0,1.0,0.0,0.0,0.0,0.0,0.0,0.0,0.0,0.9706179662647092,0.0,0.8046468786883155,0.0,0.0,0.0,0.0,0.0
0,0,,,,,,,,,,,,,,58970.0,,,,,,,,,,,,,,,,,,,,,,,,,,,,,,,,,,,,,,,,,,,,,,,,,,,,,,,,,,,,,,,,0.4311876207917472,673.0,10.0,598.0,1.0,2.0,0.0,4104.0,1.0,0.0320877297142849,235.0,1.0,5.0,3.0,2.0,10.0,0.0,0.0,0.0,0.0,0.0,0.0,0.0,0.434917274427051,0.0,0.5818778178277952,0.0,0.0,0.0,0.0,0.0
0,0,,,,,,,,,,,,,,62960.0,,,,,,,,,,,,,,,,,,,,,,,,,,,,,,,,,,,,,,,,,,,,,,,,,,,,,,,,,,,,,,,,0.8816078519106287,1985.0,11.0,1666.0,0.0,1.0,0.0,4839.0,1.0,0.0022783870639776,425.0,1.0,3.0,3.0,1.0,11.0,0.0,0.0,0.0,0.0,0.0,0.0,0.0,0.8837150643118385,0.0,0.8433504221348824,0.0,0.0,0.0,0.0,0.0
0,0,,,,,,,,,,,,,,62983.0,,,,,,,,,,,,,,,,,,,,,,,,,,,,,,,,,,,,,,,,,,,,,,,,,,,,,,,,,,,,,,,,0.8816311077353989,2026.0,11.0,1702.0,0.0,1.0,0.0,7489.0,0.0,0.0021642422820772,877.0,0.0,4.0,3.0,1.0,11.0,0.0,0.0,0.0,0.0,0.0,0.0,0.0,0.8837416713361994,0.0,0.8434327213749192,0.0,0.0,0.0,0.0,0.0
0,0,,,,,,,,,,,,,,21778.0,,,,,,,,,,,,,,,,,,,,,,,,,,,,,,,,,,,,,,,,,,,,,,,,,,,,,,,,,,,,,,,,0.4581175987237957,725.0,3.0,612.0,9.0,2.0,0.0,138.0,2.0,0.7074045034778337,52.0,51636.0,3.0,4.0,1.0,2.0,0.0,0.0,0.0,0.0,0.0,0.0,0.0,0.4587770131642085,0.0,0.6496631564811602,0.0,0.0,0.0,0.0,0.0
0,0,,,,,,,,,,,,,,69098.0,,,,,,,,,,,,,,,,,,,,,,,,,,,,,,,,,,,,,,,,,,,,,,,,,,,,,,,,,,,,,,,,0.964858877974799,1741.0,12.0,1497.0,0.0,2.0,0.0,5039.0,0.0,0.0027624275026726,781.0,2.0,3.0,3.0,1.0,12.0,0.0,0.0,0.0,0.0,0.0,0.0,0.0,0.9646156056708084,0.0,0.973647228370782,0.0,0.0,0.0,0.0,0.0
0,0,,,,,,,,,,,,,,84785.0,,,,,,,,,,,,,,,,,,,,,,,,,,,,,,,,,,,,,,,,,,,,,,,,,,,,,,,,,,,,,,,,0.001923339744466,19684.0,14.0,16627.0,2.0,2.0,0.0,5516.0,4.0,0.0047664589555942,510.0,4.0,4.0,3.0,1.0,14.0,0.0,0.0,0.0,0.0,0.0,0.0,0.0,0.0017914563062664,0.0,0.8669111348231864,0.0,0.0,0.0,0.0,0.0
0,0,,,,,,,,,,,,,,86896.0,,,,,,,,,,,,,,,,,,,,,,,,,,,,,,,,,,,,,,,,,,,,,,,,,,,,,,,,,,,,,,,,0.4312516208344138,769.0,14.0,685.0,8.0,2.0,0.0,142.0,2.0,0.2920509897073066,49.0,18545.0,3.0,3.0,2.0,14.0,0.0,0.0,0.0,0.0,0.0,0.0,0.0,0.4349841063041664,0.0,0.509555985674714,0.0,0.0,0.0,0.0,0.0
0,0,,,,,,,,,,,,,,25260.0,,,,,,,,,,,,,,,,,,,,,,,,,,,,,,,,,,,,,,,,,,,,,,,,,,,,,,,,,,,,,,,,0.8817711078005153,2199.0,4.0,1853.0,0.0,1.0,0.0,7489.0,0.0,0.0021647492703216,876.0,2.0,4.0,3.0,1.0,4.0,0.0,0.0,0.0,0.0,0.0,0.0,0.0,0.8838720457555677,0.0,0.8437217723643167,0.0,0.0,0.0,0.0,0.0
0,0,,,,,,,,,,,,,,25261.0,,,,,,,,,,,,,,,,,,,,,,,,,,,,,,,,,,,,,,,,,,,,,,,,,,,,,,,,,,,,,,,,0.8817259915004612,2214.0,4.0,1865.0,0.0,1.0,0.0,7489.0,0.0,0.0021647492703216,876.0,3.0,4.0,3.0,1.0,4.0,0.0,0.0,0.0,0.0,0.0,0.0,0.0,0.8838204281283075,0.0,0.8435230498091059,0.0,0.0,0.0,0.0,0.0
0,0,,,,,,,,,,,,,,41113.0,,,,,,,,,,,,,,,,,,,,,,,,,,,,,,,,,,,,,,,,,,,,,,,,,,,,,,,,,,,,,,,,0.8437307141975506,1515.0,7.0,1343.0,9.0,1.0,0.0,170.0,3.0,0.4954039696695124,59.0,39031.0,3.0,3.0,1.0,7.0,0.0,0.0,0.0,0.0,0.0,0.0,0.0,0.845823826288319,0.0,0.8040667854636663,0.0,0.0,0.0,0.0,0.0
0,0,,,,,,,,,,,,,,67645.0,,,,,,,,,,,,,,,,,,,,,,,,,,,,,,,,,,,,,,,,,,,,,,,,,,,,,,,,,,,,,,,,0.3284465462782781,25627.0,11.0,21744.0,9.0,2.0,0.0,140.0,3.0,0.1640617575167307,61.0,34860.0,3.0,3.0,2.0,11.0,0.0,0.0,0.0,0.0,0.0,0.0,0.0,0.3303964614803196,0.0,0.5023464163822526,0.0,0.0,0.0,0.0,0.0
0,0,,,,,,,,,,,,,,59957.0,,,,,,,,,,,,,,,,,,,,,,,,,,,,,,,,,,,,,,,,,,,,,,,,,,,,,,,,,,,,,,,,0.9633976255280148,2022.0,10.0,1761.0,9.0,1.0,0.0,174.0,4.0,0.7824855521470642,63.0,60275.0,3.0,3.0,1.0,10.0,0.0,0.0,0.0,0.0,0.0,0.0,0.0,0.9623671128467802,0.0,0.9376617517578943,0.0,0.0,0.0,0.0,0.0
0,0,,,,,,,,,,,,,,4816.0,,,,,,,,,,,,,,,,,,,,,,,,,,,,,,,,,,,,,,,,,,,,,,,,,,,,,,,,,,,,,,,,0.8819469218357776,2667.0,1.0,2281.0,9.0,1.0,0.0,147.0,1.0,0.7861185894391995,67.0,53364.0,3.0,3.0,1.0,1.0,0.0,0.0,0.0,0.0,0.0,0.0,0.0,0.8840513770997598,0.0,0.7735024549261114,0.0,0.0,0.0,0.0,0.0
0,0,,,,,,,,,,,,,,8388.0,,,,,,,,,,,,,,,,,,,,,,,,,,,,,,,,,,,,,,,,,,,,,,,,,,,,,,,,,,,,,,,,0.5541819792213543,18115.0,2.0,15422.0,10.0,2.0,0.0,128.0,2.0,0.3210376823162683,396.0,15670.0,3.0,3.0,2.0,2.0,0.0,0.0,0.0,0.0,0.0,0.0,0.0,0.5492101292144872,0.0,0.541191401394722,0.0,0.0,0.0,0.0,0.0
0,0,,,,,,,,,,,,,,21343.0,,,,,,,,,,,,,,,,,,,,,,,,,,,,,,,,,,,,,,,,,,,,,,,,,,,,,,,,,,,,,,,,0.3284893533258619,25673.0,3.0,21782.0,9.0,2.0,0.0,140.0,3.0,0.8590794862638357,59.0,47321.0,3.0,3.0,2.0,3.0,0.0,0.0,0.0,0.0,0.0,0.0,0.0,0.3304264681791123,0.0,0.499183731513083,0.0,0.0,0.0,0.0,0.0
0,0,,,,,,,,,,,,,,17836.0,,,,,,,,,,,,,,,,,,,,,,,,,,,,,,,,,,,,,,,,,,,,,,,,,,,,,,,,,,,,,,,,0.2231280256978064,25787.0,3.0,22029.0,9.0,1.0,0.0,156.0,1.0,0.391986865059935,62.0,18133.0,3.0,3.0,1.0,3.0,0.0,0.0,0.0,0.0,0.0,0.0,0.0,0.2327279341409023,0.0,0.6544043079176131,0.0,0.0,0.0,0.0,0.0
0,0,,,,,,,,,,,,,,15787.0,,,,,,,,,,,,,,,,,,,,,,,,,,,,,,,,,,,,,,,,,,,,,,,,,,,,,,,,,,,,,,,,0.843906143570942,1819.0,2.0,1606.0,9.0,1.0,0.0,170.0,4.0,0.3007411787619524,62.0,17088.0,3.0,3.0,1.0,2.0,0.0,0.0,0.0,0.0,0.0,0.0,0.0,0.8459982854648717,0.0,0.8074915761197572,0.0,0.0,0.0,0.0,0.0
0,0,,,,,,,,,,,,,,21741.0,,,,,,,,,,,,,,,,,,,,,,,,,,,,,,,,,,,,,,,,,,,,,,,,,,,,,,,,,,,,,,,,0.9650495805186852,2190.0,3.0,1879.0,9.0,2.0,0.0,158.0,3.0,0.0840162153595149,61.0,25556.0,2.0,3.0,1.0,3.0,0.0,0.0,0.0,0.0,0.0,0.0,0.0,0.964800833574439,0.0,0.8290384094781599,0.0,0.0,0.0,0.0,0.0
0,0,,,,,,,,,,,,,,8519.0,,,,,,,,,,,,,,,,,,,,,,,,,,,,,,,,,,,,,,,,,,,,,,,,,,,,,,,,,,,,,,,,0.882107852143187,3003.0,1.0,2567.0,9.0,1.0,0.0,147.0,2.0,0.3398262714246668,70.0,18665.0,3.0,3.0,1.0,1.0,0.0,0.0,0.0,0.0,0.0,0.0,0.0,0.8842094228244634,0.0,0.8442918451489616,0.0,0.0,0.0,0.0,0.0
0,0,,,,,,,,,,,,,,24617.0,,,,,,,,,,,,,,,,,,,,,,,,,,,,,,,,,,,,,,,,,,,,,,,,,,,,,,,,,,,,,,,,0.971324964156205,2067.0,4.0,1830.0,9.0,2.0,0.0,186.0,6.0,0.0483268361878867,49.0,3352.0,2.0,3.0,1.0,4.0,0.0,0.0,0.0,0.0,0.0,0.0,0.0,0.9713890746559104,0.0,0.9938694216721428,0.0,0.0,0.0,0.0,0.0
0,0,,,,,,,,,,,,,,17052.0,,,,,,,,,,,,,,,,,,,,,,,,,,,,,,,,,,,,,,,,,,,,,,,,,,,,,,,,,,,,,,,,0.0026133420444738,19892.0,3.0,16804.0,10.0,2.0,0.0,142.0,1.0,0.1683679667660008,424.0,33944.0,3.0,3.0,1.0,3.0,0.0,0.0,0.0,0.0,0.0,0.0,0.0,0.0024580446992965,0.0,0.020989194307098,0.0,0.0,0.0,0.0,0.0
0,0,,,,,,,,,,,,,,19812.0,,,,,,,,,,,,,,,,,,,,,,,,,,,,,,,,,,,,,,,,,,,,,,,,,,,,,,,,,,,,,,,,0.971478714348393,2173.0,3.0,1926.0,9.0,2.0,0.0,186.0,4.0,0.2101592828972717,48.0,7638.0,2.0,3.0,1.0,3.0,0.0,0.0,0.0,0.0,0.0,0.0,0.0,0.9715334822273538,0.0,0.8156480270503047,0.0,0.0,0.0,0.0,0.0
0,0,,,,,,,,,,,,,,2519.0,,,,,,,,,,,,,,,,,,,,,,,,,,,,,,,,,,,,,,,,,,,,,,,,,,,,,,,,,,,,,,,,0.7118735216653527,25846.0,1.0,22348.0,2.0,2.0,0.0,3477.0,1.0,0.0036422899905687,281.0,2.0,6.0,3.0,2.0,1.0,0.0,0.0,0.0,0.0,0.0,0.0,0.0,0.7161735740455366,0.0,0.8088560287873002,0.0,0.0,0.0,0.0,0.0
0,0,,,,,,,,,,,,,,86787.0,,,,,,,,,,,,,,,,,,,,,,,,,,,,,,,,,,,,,,,,,,,,,,,,,,,,,,,,,,,,,,,,0.4314069542713028,996.0,14.0,874.0,8.0,2.0,0.0,142.0,0.0,0.4095926018524171,364.0,34413.0,3.0,3.0,2.0,14.0,0.0,0.0,0.0,0.0,0.0,0.0,0.0,0.4351277564308397,0.0,0.5275060557944391,0.0,0.0,0.0,0.0,0.0
0,0,,,,,,,,,,,,,,32128.0,,,,,,,,,,,,,,,,,,,,,,,,,,,,,,,,,,,,,,,,,,,,,,,,,,,,,,,,,,,,,,,,0.8822962243238253,3283.0,5.0,2808.0,9.0,1.0,0.0,147.0,1.0,0.072817761898584,425.0,20936.0,3.0,3.0,1.0,5.0,0.0,0.0,0.0,0.0,0.0,0.0,0.0,0.8844041862427848,0.0,0.8323163020743423,0.0,0.0,0.0,0.0,0.0
0,0,,,,,,,,,,,,,,63588.0,,,,,,,,,,,,,,,,,,,,,,,,,,,,,,,,,,,,,,,,,,,,,,,,,,,,,,,,,,,,,,,,0.2232513591681769,25914.0,11.0,22139.0,9.0,1.0,0.0,156.0,2.0,0.0885213383915739,66.0,19215.0,3.0,3.0,1.0,11.0,0.0,0.0,0.0,0.0,0.0,0.0,0.0,0.2328470584618617,0.0,0.6355215282480293,0.0,0.0,0.0,0.0,0.0
0,0,,,,,,,,,,,,,,3214.0,,,,,,,,,,,,,,,,,,,,,,,,,,,,,,,,,,,,,,,,,,,,,,,,,,,,,,,,,,,,,,,,0.971621214526518,2308.0,1.0,2043.0,9.0,2.0,0.0,186.0,3.0,0.4612073779523367,46.0,32842.0,2.0,3.0,1.0,1.0,0.0,0.0,0.0,0.0,0.0,0.0,0.0,0.971683497859824,0.0,0.8057653354173978,0.0,0.0,0.0,0.0,0.0
0,0,,,,,,,,,,,,,,73131.0,,,,,,,,,,,,,,,,,,,,,,,,,,,,,,,,,,,,,,,,,,,,,,,,,,,,,,,,,,,,,,,,0.9717162146452684,2374.0,11.0,2103.0,9.0,2.0,0.0,186.0,3.0,0.5136622655504008,46.0,36108.0,2.0,3.0,1.0,11.0,0.0,0.0,0.0,0.0,0.0,0.0,0.0,0.9717704228057412,0.0,0.7718328335832085,0.0,0.0,0.0,0.0,0.0
0,0,,,,,,,,,,,,,,16393.0,,,,,,,,,,,,,,,,,,,,,,,,,,,,,,,,,,,,,,,,,,,,,,,,,,,,,,,,,,,,,,,,0.9652801377515184,2719.0,2.0,2342.0,9.0,2.0,0.0,158.0,3.0,0.1589705069393377,61.0,8059.0,2.0,3.0,1.0,2.0,0.0,0.0,0.0,0.0,0.0,0.0,0.0,0.965032001907994,0.0,0.8390289345032407,0.0,0.0,0.0,0.0,0.0
0,0,,,,,,,,,,,,,,36560.0,,,,,,,,,,,,,,,,,,,,,,,,,,,,,,,,,,,,,,,,,,,,,,,,,,,,,,,,,,,,,,,,0.8442118592542137,2360.0,6.0,2085.0,3.0,1.0,0.0,0.0,0.0,0.6948354673872489,589.0,50472.0,6.0,2.0,0.0,6.0,0.0,0.0,0.0,0.0,0.0,0.0,0.0,0.846308652913795,0.0,0.8080337323466772,0.0,0.0,0.0,0.0,0.0
0,0,,,,,,,,,,,,,,28225.0,,,,,,,,,,,,,,,,,,,,,,,,,,,,,,,,,,,,,,,,,,,,,,,,,,,,,,,,,,,,,,,,0.833929861608218,722.0,5.0,661.0,9.0,1.0,0.0,165.0,2.0,0.4154299761515536,45.0,32039.0,3.0,3.0,1.0,5.0,0.0,0.0,0.0,0.0,0.0,0.0,0.0,0.8354064755686955,0.0,0.6251575361703047,0.0,0.0,0.0,0.0,0.0
0,0,,,,,,,,,,,,,,14524.0,,,,,,,,,,,,,,,,,,,,,,,,,,,,,,,,,,,,,,,,,,,,,,,,,,,,,,,,,,,,,,,,0.5543934085478877,18417.0,3.0,15687.0,0.0,2.0,0.0,7067.0,0.0,0.005439686864001,847.0,1.0,5.0,3.0,2.0,3.0,0.0,0.0,0.0,0.0,0.0,0.0,0.0,0.5494239496885321,0.0,0.7274535201685179,0.0,0.0,0.0,0.0,0.0
0,0,,,,,,,,,,,,,,24964.0,,,,,,,,,,,,,,,,,,,,,,,,,,,,,,,,,,,,,,,,,,,,,,,,,,,,,,,,,,,,,,,,0.0002499385873936,878.0,4.0,367.0,8.0,1.0,0.0,124.0,1.0,0.1062510468369744,49.0,27814.0,3.0,3.0,1.0,4.0,0.0,0.0,0.0,0.0,0.0,0.0,0.0,0.000260681073219,0.0,0.0630973022147134,0.0,0.0,0.0,0.0,0.0
0,0,,,,,,,,,,,,,,37717.0,,,,,,,,,,,,,,,,,,,,,,,,,,,,,,,,,,,,,,,,,,,,,,,,,,,,,,,,,,,,,,,,0.8443518598942167,2600.0,6.0,2296.0,9.0,1.0,0.0,170.0,5.0,0.11517042899821,60.0,26191.0,3.0,3.0,1.0,6.0,0.0,0.0,0.0,0.0,0.0,0.0,0.0,0.8464471748067882,0.0,0.8082710535629893,0.0,0.0,0.0,0.0,0.0
0,0,,,,,,,,,,,,,,16252.0,,,,,,,,,,,,,,,,,,,,,,,,,,,,,,,,,,,,,,,,,,,,,,,,,,,,,,,,,,,,,,,,0.4934617353401365,6048.0,3.0,5385.0,9.0,1.0,0.0,156.0,3.0,0.3007489744870813,57.0,26573.0,4.0,3.0,2.0,3.0,0.0,0.0,0.0,0.0,0.0,0.0,0.0,0.494349614796399,0.0,0.4866771306563702,0.0,0.0,0.0,0.0,0.0
0,0,,,,,,,,,,,,,,22084.0,,,,,,,,,,,,,,,,,,,,,,,,,,,,,,,,,,,,,,,,,,,,,,,,,,,,,,,,,,,,,,,,0.8443821457469519,2648.0,3.0,2338.0,9.0,1.0,0.0,170.0,2.0,0.0938783390851597,57.0,24752.0,3.0,3.0,1.0,3.0,0.0,0.0,0.0,0.0,0.0,0.0,0.0,0.8464778848491027,0.0,0.8083406132298394,0.0,0.0,0.0,0.0,0.0
0,0,,,,,,,,,,,,,,55409.0,,,,,,,,,,,,,,,,,,,,,,,,,,,,,,,,,,,,,,,,,,,,,,,,,,,,,,,,,,,,,,,,0.7120797440708837,26088.0,9.0,22565.0,9.0,2.0,0.0,129.0,0.0,0.511997144647201,416.0,39531.0,4.0,3.0,2.0,9.0,0.0,0.0,0.0,0.0,0.0,0.0,0.0,0.7163929909069571,0.0,0.6723130503199232,0.0,0.0,0.0,0.0,0.0
0,0,,,,,,,,,,,,,,10962.0,,,,,,,,,,,,,,,,,,,,,,,,,,,,,,,,,,,,,,,,,,,,,,,,,,,,,,,,,,,,,,,,0.4934878223117811,6090.0,2.0,5425.0,9.0,1.0,0.0,156.0,1.0,0.4692029830628387,57.0,43918.0,4.0,3.0,2.0,2.0,0.0,0.0,0.0,0.0,0.0,0.0,0.0,0.494377578760171,0.0,0.5569828413742944,0.0,0.0,0.0,0.0,0.0
0,0,,,,,,,,,,,,,,84242.0,,,,,,,,,,,,,,,,,,,,,,,,,,,,,,,,,,,,,,,,,,,,,,,,,,,,,,,,,,,,,,,,0.8826176198221487,4116.0,14.0,3491.0,9.0,1.0,0.0,147.0,1.0,0.6852707149738345,67.0,46956.0,3.0,3.0,1.0,14.0,0.0,0.0,0.0,0.0,0.0,0.0,0.0,0.8846968635107543,0.0,0.8451650200127664,0.0,0.0,0.0,0.0,0.0
0,0,,,,,,,,,,,,,,13397.0,,,,,,,,,,,,,,,,,,,,,,,,,,,,,,,,,,,,,,,,,,,,,,,,,,,,,,,,,,,,,,,,0.4586931923343676,1568.0,2.0,1335.0,9.0,2.0,0.0,138.0,2.0,0.1207710510837781,52.0,33483.0,3.0,4.0,1.0,1.0,0.0,0.0,0.0,0.0,0.0,0.0,0.0,0.4593382748366117,0.0,0.5169233093476874,0.0,0.0,0.0,0.0,0.0
0,0,,,,,,,,,,,,,,8649.0,,,,,,,,,,,,,,,,,,,,,,,,,,,,,,,,,,,,,,,,,,,,,,,,,,,,,,,,,,,,,,,,0.8826441314623867,4205.0,1.0,3566.0,9.0,1.0,0.0,147.0,2.0,0.3363080446088092,71.0,18509.0,3.0,3.0,1.0,1.0,0.0,0.0,0.0,0.0,0.0,0.0,0.0,0.8847229383946279,0.0,0.8452111878791285,0.0,0.0,0.0,0.0,0.0
0,0,,,,,,,,,,,,,,7164.0,,,,,,,,,,,,,,,,,,,,,,,,,,,,,,,,,,,,,,,,,,,,,,,,,,,,,,,,,,,,,,,,0.9654918390024844,3212.0,1.0,2775.0,9.0,2.0,0.0,158.0,1.0,0.797434150960075,368.0,64022.0,2.0,3.0,1.0,1.0,0.0,0.0,0.0,0.0,0.0,0.0,0.0,0.9652416662105204,0.0,0.8145034794655797,0.0,0.0,0.0,0.0,0.0
0,0,,,,,,,,,,,,,,55135.0,,,,,,,,,,,,,,,,,,,,,,,,,,,,,,,,,,,,,,,,,,,,,,,,,,,,,,,,,,,,,,,,0.8826892477624408,4277.0,9.0,3626.0,9.0,1.0,0.0,147.0,0.0,0.0676877289199041,67.0,20131.0,3.0,3.0,1.0,9.0,0.0,0.0,0.0,0.0,0.0,0.0,0.0,0.8847692346170158,0.0,0.8452693995367155,0.0,0.0,0.0,0.0,0.0
0,0,,,,,,,,,,,,,,80683.0,,,,,,,,,,,,,,,,,,,,,,,,,,,,,,,,,,,,,,,,,,,,,,,,,,,,,,,,,,,,,,,,0.9641223318366656,3243.0,13.0,2830.0,14.0,1.0,0.0,690.0,60.0,0.2863014721125171,880.0,21187.0,6.0,2.0,0.0,13.0,0.0,0.0,0.0,0.0,0.0,0.0,0.0,0.963091431212664,0.0,0.9395997409546356,0.0,0.0,0.0,0.0,0.0
0,0,,,,,,,,,,,,,,46174.0,,,,,,,,,,,,,,,,,,,,,,,,,,,,,,,,,,,,,,,,,,,,,,,,,,,,,,,,,,,,,,,,0.2235969151076835,26199.0,8.0,22378.0,2.0,1.0,0.0,1985.0,1.0,0.0054917485813796,294.0,1.0,4.0,3.0,1.0,8.0,0.0,0.0,0.0,0.0,0.0,0.0,0.0,0.233181375104554,0.0,0.6547704290745558,0.0,0.0,0.0,0.0,0.0
0,0,,,,,,,,,,,,,,79977.0,,,,,,,,,,,,,,,,,,,,,,,,,,,,,,,,,,,,,,,,,,,,,,,,,,,,,,,,,,,,,,,,0.844547289359037,2941.0,13.0,2608.0,9.0,1.0,0.0,170.0,1.0,0.1136499396671726,432.0,26065.0,3.0,3.0,1.0,13.0,0.0,0.0,0.0,0.0,0.0,0.0,0.0,0.8466523440256554,0.0,0.7996988475599901,0.0,0.0,0.0,0.0,0.0
0,0,,,,,,,,,,,,,,25915.0,,,,,,,,,,,,,,,,,,,,,,,,,,,,,,,,,,,,,,,,,,,,,,,,,,,,,,,,,,,,,,,,0.9642264495449704,3420.0,4.0,2987.0,9.0,1.0,0.0,174.0,1.0,0.2840359049923251,422.0,15326.0,3.0,3.0,1.0,4.0,0.0,0.0,0.0,0.0,0.0,0.0,0.0,0.9631985629523622,0.0,0.9398738245331484,0.0,0.0,0.0,0.0,0.0
0,0,,,,,,,,,,,,,,2413.0,,,,,,,,,,,,,,,,,,,,,,,,,,,,,,,,,,,,,,,,,,,,,,,,,,,,,,,,,,,,,,,,0.8827734338481087,4456.0,1.0,3788.0,0.0,1.0,0.0,7489.0,0.0,0.0045721105223508,877.0,0.0,4.0,3.0,1.0,1.0,0.0,0.0,0.0,0.0,0.0,0.0,0.0,0.8848485235496112,0.0,0.8454018812401893,0.0,0.0,0.0,0.0,0.0
0,0,,,,,,,,,,,,,,1527.0,,,,,,,,,,,,,,,,,,,,,,,,,,,,,,,,,,,,,,,,,,,,,,,,,,,,,,,,,,,,,,,,0.493556228148538,6203.0,1.0,5524.0,0.0,1.0,0.0,6121.0,1.0,0.0026718890047927,759.0,2.0,6.0,1.0,2.0,1.0,0.0,0.0,0.0,0.0,0.0,0.0,0.0,0.4944448254349561,0.0,0.6367676432759953,0.0,0.0,0.0,0.0,0.0
0,0,,,,,,,,,,,,,,36598.0,,,,,,,,,,,,,,,,,,,,,,,,,,,,,,,,,,,,,,,,,,,,,,,,,,,,,,,,,,,,,,,,0.4588653958409463,1821.0,7.0,1562.0,9.0,2.0,0.0,138.0,5.0,0.7168899500867371,53.0,52157.0,3.0,4.0,1.0,6.0,0.0,0.0,0.0,0.0,0.0,0.0,0.0,0.4595183169351511,0.0,0.6024742891035039,0.0,0.0,0.0,0.0,0.0
0,0,,,,,,,,,,,,,,42433.0,,,,,,,,,,,,,,,,,,,,,,,,,,,,,,,,,,,,,,,,,,,,,,,,,,,,,,,,,,,,,,,,0.9643152731266312,3579.0,7.0,3125.0,9.0,1.0,0.0,174.0,3.0,0.2971672874746153,63.0,17570.0,3.0,3.0,1.0,7.0,0.0,0.0,0.0,0.0,0.0,0.0,0.0,0.9632827860181626,0.0,0.93838940727607,0.0,0.0,0.0,0.0,0.0
0,0,,,,,,,,,,,,,,9582.0,,,,,,,,,,,,,,,,,,,,,,,,,,,,,,,,,,,,,,,,,,,,,,,,,,,,,,,,,,,,,,,,0.5546091236040129,18702.0,2.0,15925.0,10.0,2.0,0.0,128.0,5.0,0.1064211335057617,66.0,22271.0,3.0,3.0,2.0,2.0,0.0,0.0,0.0,0.0,0.0,0.0,0.0,0.5496304251844609,0.0,0.0301579202156193,0.0,0.0,0.0,0.0,0.0
0,0,,,,,,,,,,,,,,69188.0,,,,,,,,,,,,,,,,,,,,,,,,,,,,,,,,,,,,,,,,,,,,,,,,,,,,,,,,,,,,,,,,0.9656439724925509,3565.0,12.0,3086.0,0.0,2.0,0.0,5039.0,129.0,0.0027622675556357,781.0,171.0,3.0,3.0,1.0,12.0,0.0,0.0,0.0,0.0,0.0,0.0,0.0,0.9653936606116528,0.0,0.9743021163431376,0.0,0.0,0.0,0.0,0.0
0,0,,,,,,,,,,,,,,85294.0,,,,,,,,,,,,,,,,,,,,,,,,,,,,,,,,,,,,,,,,,,,,,,,,,,,,,,,,,,,,,,,,0.0004258943781942,187.0,14.0,158.0,8.0,2.0,0.0,192.0,9.0,0.3880470718775118,46.0,36623.0,2.0,3.0,1.0,14.0,0.0,0.0,0.0,0.0,0.0,0.0,0.0,0.000416620984541,0.0,0.1144783118405627,0.0,0.0,0.0,0.0,0.0
0,0,,,,,,,,,,,,,,55578.0,,,,,,,,,,,,,,,,,,,,,,,,,,,,,,,,,,,,,,,,,,,,,,,,,,,,,,,,,,,,,,,,0.9657181107848932,3746.0,9.0,3249.0,9.0,2.0,0.0,158.0,3.0,0.3703215180694122,58.0,30413.0,2.0,3.0,1.0,9.0,0.0,0.0,0.0,0.0,0.0,0.0,0.0,0.9654718570881194,0.0,0.8139242320493018,0.0,0.0,0.0,0.0,0.0
0,0,,,,,,,,,,,,,,10341.0,,,,,,,,,,,,,,,,,,,,,,,,,,,,,,,,,,,,,,,,,,,,,,,,,,,,,,,,,,,,,,,,0.0004001280409653,22.0,5.0,16.0,10.0,2.0,0.0,57.0,1.0,0.2624034301041689,185.0,2099.0,3.0,3.0,2.0,5.0,0.0,0.0,0.0,0.0,0.0,0.0,0.0,0.0004699689820597,0.0,0.2041112065264059,0.0,0.0,0.0,0.0,0.0
0,0,,,,,,,,,,,,,,71635.0,,,,,,,,,,,,,,,,,,,,,,,,,,,,,,,,,,,,,,,,,,,,,,,,,,,,,,,,,,,,,,,,0.9730237162796452,3418.0,11.0,3029.0,9.0,2.0,0.0,186.0,5.0,0.2578313942746028,49.0,10895.0,2.0,3.0,1.0,11.0,0.0,0.0,0.0,0.0,0.0,0.0,0.0,0.97307009094873,0.0,0.809234345593161,0.0,0.0,0.0,0.0,0.0
0,0,,,,,,,,,,,,,,33102.0,,,,,,,,,,,,,,,,,,,,,,,,,,,,,,,,,,,,,,,,,,,,,,,,,,,,,,,,,,,,,,,,0.8448330049508798,3449.0,5.0,3071.0,9.0,1.0,0.0,170.0,4.0,0.388118029520191,59.0,31365.0,3.0,3.0,1.0,5.0,0.0,0.0,0.0,0.0,0.0,0.0,0.0,0.8469496433714662,0.0,0.7895963288862883,0.0,0.0,0.0,0.0,0.0
0,0,,,,,,,,,,,,,,29262.0,,,,,,,,,,,,,,,,,,,,,,,,,,,,,,,,,,,,,,,,,,,,,,,,,,,,,,,,,,,,,,,,0.8830608758422678,5072.0,4.0,4312.0,9.0,1.0,0.0,147.0,1.0,0.3366251295422864,69.0,18353.0,3.0,3.0,1.0,4.0,0.0,0.0,0.0,0.0,0.0,0.0,0.0,0.8851316222888107,0.0,0.8313748790602631,0.0,0.0,0.0,0.0,0.0
0,0,,,,,,,,,,,,,,86867.0,,,,,,,,,,,,,,,,,,,,,,,,,,,,,,,,,,,,,,,,,,,,,,,,,,,,,,,,,,,,,,,,0.9645246850145204,3933.0,14.0,3449.0,9.0,1.0,0.0,174.0,7.0,0.1192258437419956,66.0,29452.0,3.0,3.0,1.0,14.0,0.0,0.0,0.0,0.0,0.0,0.0,0.0,0.9635044611273494,0.0,0.9406742456031416,0.0,0.0,0.0,0.0,0.0
0,0,,,,,,,,,,,,,,75615.0,,,,,,,,,,,,,,,,,,,,,,,,,,,,,,,,,,,,,,,,,,,,,,,,,,,,,,,,,,,,,,,,0.4590389552806476,2099.0,14.0,1803.0,2.0,2.0,0.0,2053.0,1.0,0.0115354948252378,239.0,1.0,4.0,4.0,1.0,13.0,0.0,0.0,0.0,0.0,0.0,0.0,0.0,0.4597054041592855,0.0,0.6507654517172304,0.0,0.0,0.0,0.0,0.0
0,0,,,,,,,,,,,,,,50358.0,,,,,,,,,,,,,,,,,,,,,,,,,,,,,,,,,,,,,,,,,,,,,,,,,,,,,,,,,,,,,,,,0.4590701417424689,2130.0,9.0,1831.0,9.0,2.0,0.0,138.0,10.0,0.432195286631343,54.0,31953.0,3.0,4.0,1.0,8.0,0.0,0.0,0.0,0.0,0.0,0.0,0.0,0.459728887911269,0.0,0.486738884723419,0.0,0.0,0.0,0.0,0.0
0,0,,,,,,,,,,,,,,65829.0,,,,,,,,,,,,,,,,,,,,,,,,,,,,,,,,,,,,,,,,,,,,,,,,,,,,,,,,,,,,,,,,0.8449055767112078,3567.0,11.0,3177.0,9.0,1.0,0.0,170.0,2.0,0.311389065916411,59.0,17223.0,3.0,3.0,1.0,11.0,0.0,0.0,0.0,0.0,0.0,0.0,0.0,0.8470247849643634,0.0,0.8093267238010675,0.0,0.0,0.0,0.0,0.0
0,0,,,,,,,,,,,,,,46999.0,,,,,,,,,,,,,,,,,,,,,,,,,,,,,,,,,,,,,,,,,,,,,,,,,,,,,,,,,,,,,,,,0.4590945485386769,2161.0,9.0,1861.0,0.0,2.0,0.0,6285.0,1.0,0.0595376321611162,718.0,1.0,4.0,4.0,1.0,8.0,0.0,0.0,0.0,0.0,0.0,0.0,0.0,0.4597570684136491,0.0,0.6508353943083517,0.0,0.0,0.0,0.0,0.0
0,0,,,,,,,,,,,,,,1689.0,,,,,,,,,,,,,,,,,,,,,,,,,,,,,,,,,,,,,,,,,,,,,,,,,,,,,,,,,,,,,,,,0.9731749664687076,3530.0,1.0,3129.0,9.0,2.0,0.0,186.0,5.0,0.1680569349879699,49.0,50160.0,2.0,3.0,1.0,1.0,0.0,0.0,0.0,0.0,0.0,0.0,0.0,0.9732173025506864,0.0,0.8653047146639448,0.0,0.0,0.0,0.0,0.0
0,0,,,,,,,,,,,,,,16198.0,,,,,,,,,,,,,,,,,,,,,,,,,,,,,,,,,,,,,,,,,,,,,,,,,,,,,,,,,,,,,,,,0.9658642446443656,4074.0,2.0,3534.0,9.0,2.0,0.0,158.0,3.0,0.5044596788270608,61.0,44517.0,2.0,3.0,1.0,2.0,0.0,0.0,0.0,0.0,0.0,0.0,0.0,0.9656145656576712,0.0,0.795706801280316,0.0,0.0,0.0,0.0,0.0
0,0,,,,,,,,,,,,,,46964.0,,,,,,,,,,,,,,,,,,,,,,,,,,,,,,,,,,,,,,,,,,,,,,,,,,,,,,,,,,,,,,,,0.4591325146661116,2229.0,9.0,1926.0,0.0,1.0,26.0,1017.0,1.0,0.0019595465418252,14.0,273.0,4.0,1.0,1.0,8.0,0.0,0.0,0.0,0.0,0.0,0.0,0.0,0.4598009047506847,0.0,0.6509501001577904,0.0,0.0,0.0,0.0,0.0
0,0,,,,,,,,,,,,,,33257.0,,,,,,,,,,,,,,,,,,,,,,,,,,,,,,,,,,,,,,,,,,,,,,,,,,,,,,,,,,,,,,,,0.8342298618582182,1073.0,6.0,991.0,9.0,1.0,0.0,165.0,3.0,0.4078484927913159,45.0,31324.0,3.0,3.0,1.0,6.0,0.0,0.0,0.0,0.0,0.0,0.0,0.0,0.8357286908756488,0.0,0.6181035165674038,0.0,0.0,0.0,0.0,0.0
0,0,,,,,,,,,,,,,,49309.0,,,,,,,,,,,,,,,,,,,,,,,,,,,,,,,,,,,,,,,,,,,,,,,,,,,,,,,,,,,,,,,,0.4591508197632676,2253.0,9.0,1946.0,9.0,2.0,0.0,138.0,9.0,0.5796395855553707,54.0,45619.0,3.0,4.0,1.0,8.0,0.0,0.0,0.0,0.0,0.0,0.0,0.0,0.4598220401274698,0.0,0.4853987846775367,0.0,0.0,0.0,0.0,0.0
0,0,,,,,,,,,,,,,,43721.0,,,,,,,,,,,,,,,,,,,,,,,,,,,,,,,,,,,,,,,,,,,,,,,,,,,,,,,,,,,,,,,,0.4319189546126364,1772.0,7.0,1529.0,8.0,2.0,0.0,142.0,1.0,0.1063900901721938,364.0,22944.0,3.0,3.0,2.0,7.0,0.0,0.0,0.0,0.0,0.0,0.0,0.0,0.4356332205129308,0.0,0.4972821362756575,0.0,0.0,0.0,0.0,0.0
0,0,,,,,,,,,,,,,,28371.0,,,,,,,,,,,,,,,,,,,,,,,,,,,,,,,,,,,,,,,,,,,,,,,,,,,,,,,,,,,,,,,,0.8831906433444853,5354.0,4.0,4549.0,9.0,1.0,0.0,147.0,1.0,0.7328320969911969,425.0,50029.0,3.0,3.0,1.0,4.0,0.0,0.0,0.0,0.0,0.0,0.0,0.0,0.8852593360057428,0.0,0.8341288926536888,0.0,0.0,0.0,0.0,0.0
0,0,,,,,,,,,,,,,,15752.0,,,,,,,,,,,,,,,,,,,,,,,,,,,,,,,,,,,,,,,,,,,,,,,,,,,,,,,,,,,,,,,,0.8832008759073842,5373.0,2.0,4567.0,9.0,1.0,0.0,147.0,3.0,0.1391655389950461,70.0,36608.0,3.0,3.0,1.0,2.0,0.0,0.0,0.0,0.0,0.0,0.0,0.0,0.8852683823940255,0.0,0.8062113845943851,0.0,0.0,0.0,0.0,0.0
0,0,,,,,,,,,,,,,,25988.0,,,,,,,,,,,,,,,,,,,,,,,,,,,,,,,,,,,,,,,,,,,,,,,,,,,,,,,,,,,,,,,,0.9659148129593736,4213.0,4.0,3659.0,9.0,2.0,0.0,158.0,3.0,0.225088613324235,60.0,15376.0,2.0,3.0,1.0,4.0,0.0,0.0,0.0,0.0,0.0,0.0,0.0,0.9656683257352422,0.0,0.8036271637180121,0.0,0.0,0.0,0.0,0.0
0,0,,,,,,,,,,,,,,19763.0,,,,,,,,,,,,,,,,,,,,,,,,,,,,,,,,,,,,,,,,,,,,,,,,,,,,,,,,,,,,,,,,0.8832287828971083,5430.0,3.0,4611.0,9.0,1.0,0.0,147.0,1.0,0.0155413987135716,425.0,1292.0,3.0,3.0,1.0,3.0,0.0,0.0,0.0,0.0,0.0,0.0,0.0,0.8852917965754631,0.0,0.8461164795195331,0.0,0.0,0.0,0.0,0.0
0,0,,,,,,,,,,,,,,89655.0,,,,,,,,,,,,,,,,,,,,,,,,,,,,,,,,,,,,,,,,,,,,,,,,,,,,,,,,,,,,,,,,0.0003761330702443,1082.0,14.0,571.0,8.0,1.0,0.0,124.0,1.0,0.2000906965063413,49.0,10596.0,3.0,3.0,1.0,14.0,0.0,0.0,0.0,0.0,0.0,0.0,0.0,0.0004054258200738,0.0,0.0921481800805753,0.0,0.0,0.0,0.0,0.0
0,0,,,,,,,,,,,,,,18711.0,,,,,,,,,,,,,,,,,,,,,,,,,,,,,,,,,,,,,,,,,,,,,,,,,,,,,,,,,,,,,,,,0.4937823152361248,6597.0,3.0,5872.0,9.0,1.0,0.0,156.0,1.0,0.0212198036855876,55.0,2117.0,4.0,3.0,2.0,3.0,0.0,0.0,0.0,0.0,0.0,0.0,0.0,0.4946751952317447,0.0,0.0277019420772713,0.0,0.0,0.0,0.0,0.0
0,0,,,,,,,,,,,,,,85814.0,,,,,,,,,,,,,,,,,,,,,,,,,,,,,,,,,,,,,,,,,,,,,,,,,,,,,,,,,,,,,,,,0.8343081952568294,1168.0,14.0,1072.0,14.0,1.0,0.0,417.0,87.0,0.4376880392164843,329.0,44932.0,6.0,2.0,0.0,14.0,0.0,0.0,0.0,0.0,0.0,0.0,0.0,0.8358054088058757,0.0,0.8607560295843926,0.0,0.0,0.0,0.0,0.0
0,0,,,,,,,,,,,,,,86558.0,,,,,,,,,,,,,,,,,,,,,,,,,,,,,,,,,,,,,,,,,,,,,,,,,,,,,,,,,,,,,,,,0.0003853219888985,1093.0,14.0,582.0,0.0,1.0,0.0,5620.0,1.0,0.0027083430506423,729.0,9.0,4.0,1.0,1.0,14.0,0.0,0.0,0.0,0.0,0.0,0.0,0.0,0.0004159654861069,0.0,0.3046364123354496,0.0,0.0,0.0,0.0,0.0
0,0,,,,,,,,,,,,,,54211.0,,,,,,,,,,,,,,,,,,,,,,,,,,,,,,,,,,,,,,,,,,,,,,,,,,,,,,,,,,,,,,,,0.0049166830556099,20576.0,9.0,17360.0,10.0,2.0,0.0,142.0,1.0,0.6115491141996772,424.0,38450.0,3.0,3.0,1.0,9.0,0.0,0.0,0.0,0.0,0.0,0.0,0.0,0.0045865826361293,0.0,0.5438164084221284,0.0,0.0,0.0,0.0,0.0
0,0,,,,,,,,,,,,,,18172.0,,,,,,,,,,,,,,,,,,,,,,,,,,,,,,,,,,,,,,,,,,,,,,,,,,,,,,,,,,,,,,,,0.9734712168390208,3775.0,3.0,3345.0,9.0,2.0,0.0,186.0,2.0,0.6217947682224175,44.0,50955.0,2.0,3.0,1.0,3.0,0.0,0.0,0.0,0.0,0.0,0.0,0.0,0.9735187358308834,0.0,0.7954201090943891,0.0,0.0,0.0,0.0,0.0
0,0,,,,,,,,,,,,,,56016.0,,,,,,,,,,,,,,,,,,,,,,,,,,,,,,,,,,,,,,,,,,,,,,,,,,,,,,,,,,,,,,,,0.329023388788343,26435.0,9.0,22426.0,9.0,2.0,0.0,140.0,3.0,0.381242966572656,57.0,23359.0,3.0,3.0,2.0,9.0,0.0,0.0,0.0,0.0,0.0,0.0,0.0,0.3309519909039152,0.0,0.4917491467576791,0.0,0.0,0.0,0.0,0.0
0,0,,,,,,,,,,,,,,84773.0,,,,,,,,,,,,,,,,,,,,,,,,,,,,,,,,,,,,,,,,,,,,,,,,,,,,,,,,,,,,,,,,0.4938327500479711,6679.0,14.0,5948.0,9.0,1.0,0.0,156.0,0.0,0.1831111043409433,55.0,10663.0,4.0,3.0,2.0,14.0,0.0,0.0,0.0,0.0,0.0,0.0,0.0,0.4947297915419662,0.0,0.4749358924651252,0.0,0.0,0.0,0.0,0.0
0,0,,,,,,,,,,,,,,28337.0,,,,,,,,,,,,,,,,,,,,,,,,,,,,,,,,,,,,,,,,,,,,,,,,,,,,,,,,,,,,,,,,0.9648405675532752,4467.0,4.0,3921.0,9.0,1.0,0.0,174.0,2.0,0.0662353197100442,63.0,24284.0,3.0,3.0,1.0,4.0,0.0,0.0,0.0,0.0,0.0,0.0,0.0,0.963824508777391,0.0,0.9384282155703728,0.0,0.0,0.0,0.0,0.0
0,0,,,,,,,,,,,,,,62785.0,,,,,,,,,,,,,,,,,,,,,,,,,,,,,,,,,,,,,,,,,,,,,,,,,,,,,,,,,,,,,,,,0.8833520387683901,5715.0,11.0,4855.0,0.0,1.0,0.0,4986.0,2.0,0.0028286322697474,425.0,2.0,3.0,3.0,1.0,11.0,0.0,0.0,0.0,0.0,0.0,0.0,0.0,0.8854120603255742,0.0,0.8463111874776688,0.0,0.0,0.0,0.0,0.0
0,0,,,,,,,,,,,,,,13558.0,,,,,,,,,,,,,,,,,,,,,,,,,,,,,,,,,,,,,,,,,,,,,,,,,,,,,,,,,,,,,,,,0.2242913603237337,26785.0,2.0,22893.0,9.0,1.0,0.0,156.0,1.0,0.5898797396981666,409.0,39619.0,3.0,3.0,1.0,2.0,0.0,0.0,0.0,0.0,0.0,0.0,0.0,0.2338871546835712,0.0,0.6121480943879782,0.0,0.0,0.0,0.0,0.0
0,0,,,,,,,,,,,,,,63255.0,,,,,,,,,,,,,,,,,,,,,,,,,,,,,,,,,,,,,,,,,,,,,,,,,,,,,,,,,,,,,,,,0.5548819817213633,19078.0,11.0,16252.0,0.0,2.0,1.0,7307.0,3.0,0.0061234121680425,953.0,3.0,5.0,3.0,2.0,11.0,0.0,0.0,0.0,0.0,0.0,0.0,0.0,0.549907086026832,0.0,0.7278067799714775,0.0,0.0,0.0,0.0,0.0
0,0,,,,,,,,,,,,,,27484.0,,,,,,,,,,,,,,,,,,,,,,,,,,,,,,,,,,,,,,,,,,,,,,,,,,,,,,,,,,,,,,,,0.8343731953109961,1255.0,5.0,1153.0,9.0,1.0,0.0,165.0,3.0,0.2574004685167965,48.0,12208.0,3.0,3.0,1.0,5.0,0.0,0.0,0.0,0.0,0.0,0.0,0.0,0.8358763728913357,0.0,0.6471369826512167,0.0,0.0,0.0,0.0,0.0
0,0,,,,,,,,,,,,,,41331.0,,,,,,,,,,,,,,,,,,,,,,,,,,,,,,,,,,,,,,,,,,,,,,,,,,,,,,,,,,,,,,,,0.9736462170577712,3915.0,6.0,3468.0,9.0,2.0,0.0,186.0,9.0,0.3491026034435911,49.0,18565.0,2.0,3.0,1.0,6.0,0.0,0.0,0.0,0.0,0.0,0.0,0.0,0.973688379676948,0.0,0.8072745542122557,0.0,0.0,0.0,0.0,0.0
0,0,,,,,,,,,,,,,,3564.0,,,,,,,,,,,,,,,,,,,,,,,,,,,,,,,,,,,,,,,,,,,,,,,,,,,,,,,,,,,,,,,,0.0053166843889478,20698.0,1.0,17466.0,10.0,2.0,0.0,142.0,2.0,0.7382603274895053,52.0,43435.0,3.0,3.0,1.0,1.0,0.0,0.0,0.0,0.0,0.0,0.0,0.0,0.0050032003817728,0.0,0.582482453899217,0.0,0.0,0.0,0.0,0.0
0,0,,,,,,,,,,,,,,26820.0,,,,,,,,,,,,,,,,,,,,,,,,,,,,,,,,,,,,,,,,,,,,,,,,,,,,,,,,,,,,,,,,0.8343940286616905,1266.0,5.0,1164.0,9.0,1.0,0.0,165.0,1.0,0.7271254133973167,317.0,57032.0,3.0,3.0,1.0,5.0,0.0,0.0,0.0,0.0,0.0,0.0,0.0,0.8359003472445317,0.0,0.6724363913954644,0.0,0.0,0.0,0.0,0.0
0,0,,,,,,,,,,,,,,40546.0,,,,,,,,,,,,,,,,,,,,,,,,,,,,,,,,,,,,,,,,,,,,,,,,,,,,,,,,,,,,,,,,0.9649052734736902,4583.0,7.0,4020.0,9.0,1.0,0.0,174.0,5.0,0.4766475672564726,64.0,37618.0,3.0,3.0,1.0,7.0,0.0,0.0,0.0,0.0,0.0,0.0,0.0,0.963891213445505,0.0,0.9416032191480124,0.0,0.0,0.0,0.0,0.0
0,0,,,,,,,,,,,,,,26812.0,,,,,,,,,,,,,,,,,,,,,,,,,,,,,,,,,,,,,,,,,,,,,,,,,,,,,,,,,,,,,,,,0.8452678640816643,4196.0,4.0,3747.0,9.0,1.0,0.0,170.0,2.0,0.0849489690891355,59.0,23797.0,3.0,3.0,1.0,4.0,0.0,0.0,0.0,0.0,0.0,0.0,0.0,0.8474017997391606,0.0,0.7915746876464077,0.0,0.0,0.0,0.0,0.0
0,0,,,,,,,,,,,,,,11212.0,,,,,,,,,,,,,,,,,,,,,,,,,,,,,,,,,,,,,,,,,,,,,,,,,,,,,,,,,,,,,,,,0.9737599671999588,4011.0,2.0,3552.0,9.0,2.0,0.0,186.0,4.0,0.322163058170174,49.0,17331.0,2.0,3.0,1.0,2.0,0.0,0.0,0.0,0.0,0.0,0.0,0.0,0.9738019429127428,0.0,0.8026013588950207,0.0,0.0,0.0,0.0,0.0
0,0,,,,,,,,,,,,,,19610.0,,,,,,,,,,,,,,,,,,,,,,,,,,,,,,,,,,,,,,,,,,,,,,,,,,,,,,,,,,,,,,,,0.000401862042476,1132.0,3.0,621.0,8.0,1.0,0.0,124.0,9.0,0.6592390596896148,51.0,54177.0,3.0,3.0,1.0,3.0,0.0,0.0,0.0,0.0,0.0,0.0,0.0,0.0004342342405643,0.0,0.1138452077938132,0.0,0.0,0.0,0.0,0.0
0,0,,,,,,,,,,,,,,13535.0,,,,,,,,,,,,,,,,,,,,,,,,,,,,,,,,,,,,,,,,,,,,,,,,,,,,,,,,,,,,,,,,0.845291864191379,4240.0,2.0,3787.0,9.0,1.0,0.0,170.0,3.0,0.6324862614286411,59.0,46218.0,3.0,3.0,1.0,2.0,0.0,0.0,0.0,0.0,0.0,0.0,0.0,0.8474253223247633,0.0,0.7916626601662475,0.0,0.0,0.0,0.0,0.0
0,0,,,,,,,,,,,,,,19245.0,,,,,,,,,,,,,,,,,,,,,,,,,,,,,,,,,,,,,,,,,,,,,,,,,,,,,,,,,,,,,,,,0.9649682146871852,4698.0,3.0,4118.0,9.0,1.0,0.0,174.0,1.0,0.759482880896879,61.0,58328.0,3.0,3.0,1.0,3.0,0.0,0.0,0.0,0.0,0.0,0.0,0.0,0.963951180268355,0.0,0.9417681543987988,0.0,0.0,0.0,0.0,0.0
0,0,,,,,,,,,,,,,,67603.0,,,,,,,,,,,,,,,,,,,,,,,,,,,,,,,,,,,,,,,,,,,,,,,,,,,,,,,,,,,,,,,,0.9661710828947532,4802.0,11.0,4165.0,9.0,2.0,0.0,158.0,5.0,0.7847241729343097,62.0,62915.0,2.0,3.0,1.0,11.0,0.0,0.0,0.0,0.0,0.0,0.0,0.0,0.9659195319158916,0.0,0.7802343264805645,0.0,0.0,0.0,0.0,0.0
0,0,,,,,,,,,,,,,,64134.0,,,,,,,,,,,,,,,,,,,,,,,,,,,,,,,,,,,,,,,,,,,,,,,,,,,,,,,,,,,,,,,,0.3291132134127813,26580.0,10.0,22555.0,9.0,2.0,0.0,140.0,1.0,0.4725235063324476,55.0,27530.0,3.0,3.0,2.0,10.0,0.0,0.0,0.0,0.0,0.0,0.0,0.0,0.3310501209188862,0.0,0.5037372013651877,0.0,0.0,0.0,0.0,0.0
0,0,,,,,,,,,,,,,,62361.0,,,,,,,,,,,,,,,,,,,,,,,,,,,,,,,,,,,,,,,,,,,,,,,,,,,,,,,,,,,,,,,,0.3291209327164439,26591.0,10.0,22566.0,9.0,2.0,0.0,140.0,2.0,0.0960587169958161,55.0,19252.0,3.0,3.0,2.0,10.0,0.0,0.0,0.0,0.0,0.0,0.0,0.0,0.3310590418293381,0.0,0.5037485779294654,0.0,0.0,0.0,0.0,0.0
0,0,,,,,,,,,,,,,,40333.0,,,,,,,,,,,,,,,,,,,,,,,,,,,,,,,,,,,,,,,,,,,,,,,,,,,,,,,,,,,,,,,,0.9650558617975656,4834.0,7.0,4246.0,9.0,1.0,0.0,174.0,0.0,0.1211178861642199,422.0,29278.0,3.0,3.0,1.0,7.0,0.0,0.0,0.0,0.0,0.0,0.0,0.0,0.964044836317525,0.0,0.9419791744990698,0.0,0.0,0.0,0.0,0.0
0,0,,,,,,,,,,,,,,18701.0,,,,,,,,,,,,,,,,,,,,,,,,,,,,,,,,,,,,,,,,,,,,,,,,,,,,,,,,,,,,,,,,0.9650940971141748,4896.0,3.0,4295.0,9.0,1.0,0.0,174.0,1.0,0.1380647360674521,422.0,41009.0,3.0,3.0,1.0,3.0,0.0,0.0,0.0,0.0,0.0,0.0,0.0,0.9640785255438452,0.0,0.9420664931612508,0.0,0.0,0.0,0.0,0.0
0,0,,,,,,,,,,,,,,68942.0,,,,,,,,,,,,,,,,,,,,,,,,,,,,,,,,,,,,,,,,,,,,,,,,,,,,,,,,,,,,,,,,0.8835808760841284,6193.0,12.0,5250.0,0.0,1.0,0.0,7159.0,9.0,0.0043240122035691,956.0,9.0,4.0,3.0,1.0,12.0,0.0,0.0,0.0,0.0,0.0,0.0,0.0,0.885634495049231,0.0,0.8466644720202657,0.0,0.0,0.0,0.0,0.0
0,0,,,,,,,,,,,,,,7837.0,,,,,,,,,,,,,,,,,,,,,,,,,,,,,,,,,,,,,,,,,,,,,,,,,,,,,,,,,,,,,,,,0.9741149676437096,4287.0,1.0,3803.0,9.0,2.0,0.0,186.0,3.0,0.4882362068077261,44.0,34595.0,2.0,3.0,1.0,1.0,0.0,0.0,0.0,0.0,0.0,0.0,0.0,0.9741580547879524,0.0,0.9602758461194936,0.0,0.0,0.0,0.0,0.0
0,0,,,,,,,,,,,,,,75846.0,,,,,,,,,,,,,,,,,,,,,,,,,,,,,,,,,,,,,,,,,,,,,,,,,,,,,,,,,,,,,,,,0.9651205677179808,4948.0,12.0,4342.0,9.0,1.0,0.0,174.0,4.0,0.0431314262590448,64.0,4621.0,3.0,3.0,1.0,12.0,0.0,0.0,0.0,0.0,0.0,0.0,0.0,0.9641088458475334,0.0,0.9421271311210988,0.0,0.0,0.0,0.0,0.0
0,0,,,,,,,,,,,,,,15503.0,,,,,,,,,,,,,,,,,,,,,,,,,,,,,,,,,,,,,,,,,,,,,,,,,,,,,,,,,,,,,,,,0.4321062880708587,2059.0,3.0,1773.0,8.0,2.0,0.0,142.0,2.0,0.711426880887427,49.0,57029.0,3.0,3.0,2.0,3.0,0.0,0.0,0.0,0.0,0.0,0.0,0.0,0.435815279764383,0.0,0.5175415213082835,0.0,0.0,0.0,0.0,0.0
0,0,,,,,,,,,,,,,,4448.0,,,,,,,,,,,,,,,,,,,,,,,,,,,,,,,,,,,,,,,,,,,,,,,,,,,,,,,,,,,,,,,,0.8454787221884442,4552.0,1.0,4073.0,9.0,1.0,0.0,170.0,3.0,0.6538912831452816,59.0,47532.0,3.0,3.0,1.0,1.0,0.0,0.0,0.0,0.0,0.0,0.0,0.0,0.8476226506817631,0.0,0.8097011184785254,0.0,0.0,0.0,0.0,0.0
0,0,,,,,,,,,,,,,,18928.0,,,,,,,,,,,,,,,,,,,,,,,,,,,,,,,,,,,,,,,,,,,,,,,,,,,,,,,,,,,,,,,,0.4321149547433032,2072.0,3.0,1783.0,8.0,2.0,0.0,142.0,2.0,0.3467139296692741,49.0,28804.0,3.0,3.0,2.0,3.0,0.0,0.0,0.0,0.0,0.0,0.0,0.0,0.4358252661368255,0.0,0.52029995016284,0.0,0.0,0.0,0.0,0.0
0,0,,,,,,,,,,,,,,63736.0,,,,,,,,,,,,,,,,,,,,,,,,,,,,,,,,,,,,,,,,,,,,,,,,,,,,,,,,,,,,,,,,0.965252920737012,5169.0,10.0,4545.0,9.0,1.0,0.0,174.0,2.0,0.2671799703577804,422.0,13941.0,3.0,3.0,1.0,10.0,0.0,0.0,0.0,0.0,0.0,0.0,0.0,0.9642442765373406,0.0,0.9424909588801866,0.0,0.0,0.0,0.0,0.0
0,0,,,,,,,,,,,,,,86475.0,,,,,,,,,,,,,,,,,,,,,,,,,,,,,,,,,,,,,,,,,,,,,,,,,,,,,,,,,,,,,,,,0.965268803099296,5195.0,14.0,4571.0,9.0,1.0,0.0,174.0,3.0,0.7548356920784448,63.0,58218.0,3.0,3.0,1.0,14.0,0.0,0.0,0.0,0.0,0.0,0.0,0.0,0.9642624687195536,0.0,0.9425297671744892,0.0,0.0,0.0,0.0,0.0
0,0,,,,,,,,,,,,,,51381.0,,,,,,,,,,,,,,,,,,,,,,,,,,,,,,,,,,,,,,,,,,,,,,,,,,,,,,,,,,,,,,,,0.2246802496447218,27194.0,9.0,23247.0,0.0,1.0,0.0,7937.0,0.0,0.005129844357362,880.0,1.0,4.0,1.0,1.0,9.0,0.0,0.0,0.0,0.0,0.0,0.0,0.0,0.2342714266866659,0.0,0.6559335927501531,0.0,0.0,0.0,0.0,0.0
0,0,,,,,,,,,,,,,,22159.0,,,,,,,,,,,,,,,,,,,,,,,,,,,,,,,,,,,,,,,,,,,,,,,,,,,,,,,,,,,,,,,,0.9653470384394344,5328.0,3.0,4691.0,9.0,1.0,0.0,174.0,1.0,0.4120417402674901,61.0,33521.0,3.0,3.0,1.0,3.0,0.0,0.0,0.0,0.0,0.0,0.0,0.0,0.964343322862722,0.0,0.9427359362379724,0.0,0.0,0.0,0.0,0.0
0,0,,,,,,,,,,,,,,78093.0,,,,,,,,,,,,,,,,,,,,,,,,,,,,,,,,,,,,,,,,,,,,,,,,,,,,,,,,,,,,,,,,0.8456832945522036,4916.0,13.0,4404.0,9.0,1.0,0.0,170.0,0.0,0.267423744667175,432.0,14724.0,3.0,3.0,1.0,13.0,0.0,0.0,0.0,0.0,0.0,0.0,0.0,0.8478337005470308,0.0,0.8106544950888829,0.0,0.0,0.0,0.0,0.0
0,0,,,,,,,,,,,,,,1491.0,,,,,,,,,,,,,,,,,,,,,,,,,,,,,,,,,,,,,,,,,,,,,,,,,,,,,,,,,,,,,,,,0.9745937182421478,4683.0,1.0,4147.0,9.0,2.0,0.0,186.0,5.0,0.2337172956502974,49.0,9260.0,2.0,3.0,1.0,1.0,0.0,0.0,0.0,0.0,0.0,0.0,0.0,0.9746291319142136,0.0,0.7724987240422343,0.0,0.0,0.0,0.0,0.0
0,0,,,,,,,,,,,,,,47557.0,,,,,,,,,,,,,,,,,,,,,,,,,,,,,,,,,,,,,,,,,,,,,,,,,,,,,,,,,,,,,,,,0.0064600215334049,21040.0,8.0,17740.0,10.0,2.0,0.0,142.0,2.0,0.5558647544229753,54.0,36410.0,3.0,3.0,1.0,8.0,0.0,0.0,0.0,0.0,0.0,0.0,0.0,0.0060220201415734,0.0,0.5766663159951306,0.0,0.0,0.0,0.0,0.0
0,0,,,,,,,,,,,,,,58563.0,,,,,,,,,,,,,,,,,,,,,,,,,,,,,,,,,,,,,,,,,,,,,,,,,,,,,,,,,,,,,,,,0.96648477786582,5536.0,10.0,4806.0,9.0,2.0,0.0,158.0,3.0,0.0325714546504121,60.0,3657.0,2.0,3.0,1.0,10.0,0.0,0.0,0.0,0.0,0.0,0.0,0.0,0.9662332952777146,0.0,0.975020701625874,0.0,0.0,0.0,0.0,0.0
0,0,,,,,,,,,,,,,,27446.0,,,,,,,,,,,,,,,,,,,,,,,,,,,,,,,,,,,,,,,,,,,,,,,,,,,,,,,,,,,,,,,,0.8457084375242857,4956.0,4.0,4438.0,9.0,1.0,0.0,170.0,1.0,0.0695007873452562,57.0,22700.0,3.0,3.0,1.0,4.0,0.0,0.0,0.0,0.0,0.0,0.0,0.0,0.8478604901584116,0.0,0.8106913207948624,0.0,0.0,0.0,0.0,0.0
0,0,,,,,,,,,,,,,,10061.0,,,,,,,,,,,,,,,,,,,,,,,,,,,,,,,,,,,,,,,,,,,,,,,,,,,,,,,,,,,,,,,,0.9747087183858978,4768.0,2.0,4225.0,9.0,2.0,0.0,186.0,1.0,0.0850181183874548,330.0,22197.0,2.0,3.0,1.0,2.0,0.0,0.0,0.0,0.0,0.0,0.0,0.0,0.9747483032110356,0.0,0.9083563271555712,0.0,0.0,0.0,0.0,0.0
0,0,,,,,,,,,,,,,,4103.0,,,,,,,,,,,,,,,,,,,,,,,,,,,,,,,,,,,,,,,,,,,,,,,,,,,,,,,,,,,,,,,,0.9665379174510826,5655.0,1.0,4901.0,9.0,2.0,0.0,158.0,3.0,0.7814222085323356,62.0,62963.0,2.0,3.0,1.0,1.0,0.0,0.0,0.0,0.0,0.0,0.0,0.0,0.966278258251683,0.0,0.8592488494673313,0.0,0.0,0.0,0.0,0.0
0,0,,,,,,,,,,,,,,73631.0,,,,,,,,,,,,,,,,,,,,,,,,,,,,,,,,,,,,,,,,,,,,,,,,,,,,,,,,,,,,,,,,0.9665657728788412,5726.0,12.0,4960.0,9.0,2.0,0.0,158.0,3.0,0.5492431075178555,62.0,48274.0,2.0,3.0,1.0,12.0,0.0,0.0,0.0,0.0,0.0,0.0,0.0,0.966308070658336,0.0,0.7958939121295604,0.0,0.0,0.0,0.0,0.0
0,0,,,,,,,,,,,,,,9872.0,,,,,,,,,,,,,,,,,,,,,,,,,,,,,,,,,,,,,,,,,,,,,,,,,,,,,,,,,,,,,,,,0.9666030562975336,5825.0,2.0,5043.0,2.0,2.0,0.0,2369.0,2.0,0.0026893139349093,468.0,2.0,3.0,3.0,1.0,2.0,0.0,0.0,0.0,0.0,0.0,0.0,0.0,0.9663471688965694,0.0,0.9751162475914456,0.0,0.0,0.0,0.0,0.0
0,0,,,,,,,,,,,,,,16136.0,,,,,,,,,,,,,,,,,,,,,,,,,,,,,,,,,,,,,,,,,,,,,,,,,,,,,,,,,,,,,,,,0.9666077702930004,5837.0,2.0,5052.0,9.0,2.0,0.0,158.0,3.0,0.6291024415630835,61.0,53204.0,2.0,3.0,1.0,2.0,0.0,0.0,0.0,0.0,0.0,0.0,0.0,0.9663525449043264,0.0,0.7769439622911923,0.0,0.0,0.0,0.0,0.0
0,0,,,,,,,,,,,,,,13033.0,,,,,,,,,,,,,,,,,,,,,,,,,,,,,,,,,,,,,,,,,,,,,,,,,,,,,,,,,,,,,,,,0.9666129128335098,5846.0,2.0,5061.0,9.0,2.0,0.0,158.0,1.0,0.3589073243053775,58.0,29935.0,2.0,3.0,1.0,2.0,0.0,0.0,0.0,0.0,0.0,0.0,0.0,0.9663584096400616,0.0,0.8297629663837445,0.0,0.0,0.0,0.0,0.0
0,0,,,,,,,,,,,,,,11393.0,,,,,,,,,,,,,,,,,,,,,,,,,,,,,,,,,,,,,,,,,,,,,,,,,,,,,,,,,,,,,,,,0.974978718723398,4985.0,2.0,4411.0,9.0,2.0,0.0,186.0,3.0,0.8240620347734768,46.0,61032.0,2.0,3.0,1.0,2.0,0.0,0.0,0.0,0.0,0.0,0.0,0.0,0.975006274018274,0.0,0.8359915786787459,0.0,0.0,0.0,0.0,0.0
0,0,,,,,,,,,,,,,,9427.0,,,,,,,,,,,,,,,,,,,,,,,,,,,,,,,,,,,,,,,,,,,,,,,,,,,,,,,,,,,,,,,,0.4941249241303908,7192.0,2.0,6396.0,9.0,1.0,0.0,156.0,1.0,0.2182921222293132,341.0,14461.0,4.0,3.0,2.0,2.0,0.0,0.0,0.0,0.0,0.0,0.0,0.0,0.4950247447788949,0.0,0.5275936478056372,0.0,0.0,0.0,0.0,0.0
0,0,,,,,,,,,,,,,,19401.0,,,,,,,,,,,,,,,,,,,,,,,,,,,,,,,,,,,,,,,,,,,,,,,,,,,,,,,,,,,,,,,,0.5553312690402465,19717.0,3.0,16794.0,10.0,2.0,0.0,128.0,1.0,0.3854563356347785,63.0,26411.0,3.0,3.0,2.0,3.0,0.0,0.0,0.0,0.0,0.0,0.0,0.0,0.5503396236269992,0.0,0.4760188928576101,0.0,0.0,0.0,0.0,0.0
0,0,,,,,,,,,,,,,,14014.0,,,,,,,,,,,,,,,,,,,,,,,,,,,,,,,,,,,,,,,,,,,,,,,,,,,,,,,,,,,,,,,,0.5553191261397361,19723.0,3.0,16798.0,0.0,2.0,0.0,5070.0,2.0,0.0042238981713063,396.0,2.0,3.0,3.0,2.0,3.0,0.0,0.0,0.0,0.0,0.0,0.0,0.0,0.5503257497794466,0.0,0.7281862071672488,0.0,0.0,0.0,0.0,0.0
0,0,,,,,,,,,,,,,,15170.0,,,,,,,,,,,,,,,,,,,,,,,,,,,,,,,,,,,,,,,,,,,,,,,,,,,,,,,,,,,,,,,,0.8346490288741908,1575.0,3.0,1451.0,9.0,1.0,0.0,165.0,2.0,0.4802652971929831,47.0,37588.0,3.0,3.0,1.0,3.0,0.0,0.0,0.0,0.0,0.0,0.0,0.0,0.8361698189744537,0.0,0.8232282131977502,0.0,0.0,0.0,0.0,0.0
0,0,,,,,,,,,,,,,,61201.0,,,,,,,,,,,,,,,,,,,,,,,,,,,,,,,,,,,,,,,,,,,,,,,,,,,,,,,,,,,,,,,,0.8459272956676372,5337.0,10.0,4790.0,9.0,1.0,0.0,170.0,10.0,0.6492817658978132,62.0,47453.0,3.0,3.0,1.0,10.0,0.0,0.0,0.0,0.0,0.0,0.0,0.0,0.848091795583504,0.0,0.811098449433191,0.0,0.0,0.0,0.0,0.0
0,0,,,,,,,,,,,,,,64057.0,,,,,,,,,,,,,,,,,,,,,,,,,,,,,,,,,,,,,,,,,,,,,,,,,,,,,,,,,,,,,,,,0.0069900233000774,21194.0,11.0,17854.0,0.0,2.0,0.0,10254.0,0.0,0.0026393316389554,868.0,1.0,4.0,3.0,1.0,11.0,0.0,0.0,0.0,0.0,0.0,0.0,0.0,0.0064575750574737,0.0,0.8676715910969507,0.0,0.0,0.0,0.0,0.0
0,0,,,,,,,,,,,,,,40230.0,,,,,,,,,,,,,,,,,,,,,,,,,,,,,,,,,,,,,,,,,,,,,,,,,,,,,,,,,,,,,,,,0.9751849689812112,5151.0,6.0,4558.0,9.0,2.0,0.0,186.0,2.0,0.8280062190810537,330.0,61178.0,2.0,3.0,1.0,6.0,0.0,0.0,0.0,0.0,0.0,0.0,0.0,0.9752095662305,0.0,0.8010383106319182,0.0,0.0,0.0,0.0,0.0
0,0,,,,,,,,,,,,,,42108.0,,,,,,,,,,,,,,,,,,,,,,,,,,,,,,,,,,,,,,,,,,,,,,,,,,,,,,,,,,,,,,,,0.9656229209546592,5807.0,7.0,5097.0,9.0,1.0,0.0,174.0,3.0,0.5248137082049515,61.0,43174.0,3.0,3.0,1.0,7.0,0.0,0.0,0.0,0.0,0.0,0.0,0.0,0.964614184242336,0.0,0.9434150813882696,0.0,0.0,0.0,0.0,0.0
0,0,,,,,,,,,,,,,,45820.0,,,,,,,,,,,,,,,,,,,,,,,,,,,,,,,,,,,,,,,,,,,,,,,,,,,,,,,,,,,,,,,,0.7129935226609091,27106.0,8.0,23462.0,9.0,2.0,0.0,129.0,0.0,0.4850349954462558,416.0,38240.0,4.0,3.0,2.0,8.0,0.0,0.0,0.0,0.0,0.0,0.0,0.0,0.7173073979201323,0.0,0.751697964756384,0.0,0.0,0.0,0.0,0.0
0,0,,,,,,,,,,,,,,64041.0,,,,,,,,,,,,,,,,,,,,,,,,,,,,,,,,,,,,,,,,,,,,,,,,,,,,,,,,,,,,,,,,0.4941863734413759,7291.0,11.0,6483.0,2.0,1.0,0.0,2977.0,2.0,0.0021901492578679,235.0,2.0,6.0,3.0,2.0,11.0,0.0,0.0,0.0,0.0,0.0,0.0,0.0,0.4950840017497451,0.0,0.6374414742994965,0.0,0.0,0.0,0.0,0.0
0,0,,,,,,,,,,,,,,28783.0,,,,,,,,,,,,,,,,,,,,,,,,,,,,,,,,,,,,,,,,,,,,,,,,,,,,,,,,,,,,,,,,0.975431219289024,5346.0,4.0,4733.0,9.0,2.0,0.0,186.0,1.0,0.5208057245688827,330.0,36503.0,2.0,3.0,1.0,4.0,0.0,0.0,0.0,0.0,0.0,0.0,0.0,0.975459124946198,0.0,0.7783083192446331,0.0,0.0,0.0,0.0,0.0
0,0,,,,,,,,,,,,,,36420.0,,,,,,,,,,,,,,,,,,,,,,,,,,,,,,,,,,,,,,,,,,,,,,,,,,,,,,,,,,,,,,,,0.7130433004829339,27158.0,6.0,23510.0,9.0,2.0,0.0,129.0,10.0,0.7024938413449681,53.0,49881.0,4.0,3.0,2.0,6.0,0.0,0.0,0.0,0.0,0.0,0.0,0.0,0.7173625072713727,0.0,0.6799264118851748,0.0,0.0,0.0,0.0,0.0
0,0,,,,,,,,,,,,,,47584.0,,,,,,,,,,,,,,,,,,,,,,,,,,,,,,,,,,,,,,,,,,,,,,,,,,,,,,,,,,,,,,,,0.4598233625921102,3239.0,9.0,2771.0,0.0,2.0,0.0,6505.0,0.0,0.0439551160168065,725.0,3.0,4.0,1.0,1.0,8.0,0.0,0.0,0.0,0.0,0.0,0.0,0.0,0.4604654949318149,0.0,0.6517754227330207,0.0,0.0,0.0,0.0,0.0
0,0,,,,,,,,,,,,,,22961.0,,,,,,,,,,,,,,,,,,,,,,,,,,,,,,,,,,,,,,,,,,,,,,,,,,,,,,,,,,,,,,,,0.966850326787022,6403.0,3.0,5535.0,9.0,2.0,0.0,158.0,1.0,0.2487631206775868,58.0,16751.0,2.0,3.0,1.0,3.0,0.0,0.0,0.0,0.0,0.0,0.0,0.0,0.9665817583259696,0.0,0.7811798334315334,0.0,0.0,0.0,0.0,0.0
0,0,,,,,,,,,,,,,,48454.0,,,,,,,,,,,,,,,,,,,,,,,,,,,,,,,,,,,,,,,,,,,,,,,,,,,,,,,,,,,,,,,,0.4941985473614767,7321.0,8.0,6508.0,9.0,1.0,0.0,156.0,1.0,0.3940440013651761,341.0,35948.0,4.0,3.0,2.0,8.0,0.0,0.0,0.0,0.0,0.0,0.0,0.0,0.4950979837316311,0.0,0.5263395734007877,0.0,0.0,0.0,0.0,0.0
0,0,,,,,,,,,,,,,,3823.0,,,,,,,,,,,,,,,,,,,,,,,,,,,,,,,,,,,,,,,,,,,,,,,,,,,,,,,,,,,,,,,,0.0075833586111953,21388.0,1.0,18021.0,10.0,2.0,0.0,142.0,2.0,0.7053587886644027,52.0,41791.0,3.0,3.0,1.0,1.0,0.0,0.0,0.0,0.0,0.0,0.0,0.0,0.0070635645056826,0.0,0.5894948827003712,0.0,0.0,0.0,0.0,0.0
0,0,,,,,,,,,,,,,,61987.0,,,,,,,,,,,,,,,,,,,,,,,,,,,,,,,,,,,,,,,,,,,,,,,,,,,,,,,,,,,,,,,,0.4942426053580321,7390.0,10.0,6563.0,9.0,1.0,0.0,156.0,6.0,0.5593679886230152,58.0,51022.0,4.0,3.0,2.0,10.0,0.0,0.0,0.0,0.0,0.0,0.0,0.0,0.495139263868628,0.0,0.489415237672502,0.0,0.0,0.0,0.0,0.0
0,0,,,,,,,,,,,,,,28667.0,,,,,,,,,,,,,,,,,,,,,,,,,,,,,,,,,,,,,,,,,,,,,,,,,,,,,,,,,,,,,,,,0.834745695621413,1703.0,5.0,1570.0,14.0,1.0,0.0,545.0,69.0,0.6630559449843412,582.0,57714.0,6.0,2.0,0.0,5.0,0.0,0.0,0.0,0.0,0.0,0.0,0.0,0.8362743471543881,0.0,0.7685604614819562,0.0,0.0,0.0,0.0,0.0
0,0,,,,,,,,,,,,,,83009.0,,,,,,,,,,,,,,,,,,,,,,,,,,,,,,,,,,,,,,,,,,,,,,,,,,,,,,,,,,,,,,,,0.4942953590118023,7478.0,14.0,6645.0,9.0,1.0,0.0,156.0,9.0,0.0339528671501624,60.0,4186.0,4.0,3.0,2.0,14.0,0.0,0.0,0.0,0.0,0.0,0.0,0.0,0.4951931943701882,0.0,0.0838812666953668,0.0,0.0,0.0,0.0,0.0
0,0,,,,,,,,,,,,,,86059.0,,,,,,,,,,,,,,,,,,,,,,,,,,,,,,,,,,,,,,,,,,,,,,,,,,,,,,,,,,,,,,,,0.494317967720561,7514.0,14.0,6679.0,9.0,1.0,0.0,156.0,2.0,0.4512704307882404,55.0,42564.0,4.0,3.0,2.0,14.0,0.0,0.0,0.0,0.0,0.0,0.0,0.0,0.4952191609079765,0.0,0.4925250213246127,0.0,0.0,0.0,0.0,0.0
0,0,,,,,,,,,,,,,,20452.0,,,,,,,,,,,,,,,,,,,,,,,,,,,,,,,,,,,,,,,,,,,,,,,,,,,,,,,,,,,,,,,,0.9670371724255264,6823.0,3.0,5872.0,9.0,2.0,0.0,158.0,4.0,0.6822235183066314,61.0,56482.0,2.0,3.0,1.0,3.0,0.0,0.0,0.0,0.0,0.0,0.0,0.0,0.9667537905741966,0.0,0.8202262846951288,0.0,0.0,0.0,0.0,0.0
0,0,,,,,,,,,,,,,,11459.0,,,,,,,,,,,,,,,,,,,,,,,,,,,,,,,,,,,,,,,,,,,,,,,,,,,,,,,,,,,,,,,,0.4600118372961609,3505.0,2.0,3002.0,9.0,2.0,0.0,138.0,2.0,0.3213955951835686,53.0,26236.0,3.0,4.0,1.0,1.0,0.0,0.0,0.0,0.0,0.0,0.0,0.0,0.4606533649476821,0.0,0.5649319038932844,0.0,0.0,0.0,0.0,0.0
0,0,,,,,,,,,,,,,,91806.0,,,,,,,,,,,,,,,,,,,,,,,,,,,,,,,,,,,,,,,,,,,,,,,,,,,,,,,,,,,,,,,,0.9760562200702748,5841.0,14.0,5157.0,9.0,2.0,0.0,186.0,8.0,0.5073615396926889,49.0,36235.0,2.0,3.0,1.0,14.0,0.0,0.0,0.0,0.0,0.0,0.0,0.0,0.9760577854608214,0.0,0.8123345242272482,0.0,0.0,0.0,0.0,0.0
0,0,,,,,,,,,,,,,,86037.0,,,,,,,,,,,,,,,,,,,,,,,,,,,,,,,,,,,,,,,,,,,,,,,,,,,,,,,,,,,,,,,,0.9760674700843376,5853.0,14.0,5169.0,0.0,4.0,26.0,1059.0,0.0,0.0028385141091984,8.0,0.0,3.0,1.0,1.0,14.0,0.0,0.0,0.0,0.0,0.0,0.0,0.0,0.976070403598132,0.0,0.9948722447286996,0.0,0.0,0.0,0.0,0.0
0,0,,,,,,,,,,,,,,86591.0,,,,,,,,,,,,,,,,,,,,,,,,,,,,,,,,,,,,,,,,,,,,,,,,,,,,,,,,,,,,,,,,0.9760724700905874,5861.0,14.0,5175.0,9.0,2.0,0.0,186.0,3.0,0.2564981914871269,46.0,10658.0,2.0,3.0,1.0,14.0,0.0,0.0,0.0,0.0,0.0,0.0,0.0,0.9760760116591592,0.0,0.8057473922613162,0.0,0.0,0.0,0.0,0.0
0,0,,,,,,,,,,,,,,75407.0,,,,,,,,,,,,,,,,,,,,,,,,,,,,,,,,,,,,,,,,,,,,,,,,,,,,,,,,,,,,,,,,0.3295468979276477,27194.0,12.0,23072.0,9.0,2.0,0.0,140.0,3.0,0.4009316429197184,57.0,24527.0,3.0,3.0,2.0,12.0,0.0,0.0,0.0,0.0,0.0,0.0,0.0,0.3314734586694219,0.0,0.5046217292377703,0.0,0.0,0.0,0.0,0.0
0,0,,,,,,,,,,,,,,55497.0,,,,,,,,,,,,,,,,,,,,,,,,,,,,,,,,,,,,,,,,,,,,,,,,,,,,,,,,,,,,,,,,0.96622056836504,6806.0,9.0,6008.0,9.0,1.0,0.0,174.0,0.0,0.3125656778310506,422.0,19129.0,3.0,3.0,1.0,9.0,0.0,0.0,0.0,0.0,0.0,0.0,0.0,0.9652354135756804,0.0,0.944897073126954,0.0,0.0,0.0,0.0,0.0
0,0,,,,,,,,,,,,,,48269.0,,,,,,,,,,,,,,,,,,,,,,,,,,,,,,,,,,,,,,,,,,,,,,,,,,,,,,,,,,,,,,,,0.2247846942052158,27270.0,8.0,23311.0,9.0,1.0,0.0,156.0,0.0,0.8878156806615225,409.0,51072.0,3.0,3.0,1.0,8.0,0.0,0.0,0.0,0.0,0.0,0.0,0.0,0.2343815846608864,0.0,0.6238024112156194,0.0,0.0,0.0,0.0,0.0
0,0,,,,,,,,,,,,,,30670.0,,,,,,,,,,,,,,,,,,,,,,,,,,,,,,,,,,,,,,,,,,,,,,,,,,,,,,,,,,,,,,,,0.0083833612778709,21599.0,5.0,18205.0,10.0,2.0,0.0,142.0,2.0,0.7401830082514365,54.0,43629.0,3.0,3.0,1.0,5.0,0.0,0.0,0.0,0.0,0.0,0.0,0.0,0.007824838749995,0.0,0.6376260538932055,0.0,0.0,0.0,0.0,0.0
0,0,,,,,,,,,,,,,,12058.0,,,,,,,,,,,,,,,,,,,,,,,,,,,,,,,,,,,,,,,,,,,,,,,,,,,,,,,,,,,,,,,,0.9671524510419428,7094.0,2.0,6113.0,9.0,2.0,0.0,158.0,3.0,0.3876949652191613,60.0,33559.0,2.0,3.0,1.0,2.0,0.0,0.0,0.0,0.0,0.0,0.0,0.0,0.9668730402008084,0.0,0.7729131168686403,0.0,0.0,0.0,0.0,0.0
0,0,,,,,,,,,,,,,,30033.0,,,,,,,,,,,,,,,,,,,,,,,,,,,,,,,,,,,,,,,,,,,,,,,,,,,,,,,,,,,,,,,,0.5556448415887199,20132.0,5.0,17149.0,10.0,2.0,0.0,128.0,3.0,0.2995537909147856,68.0,13972.0,3.0,3.0,2.0,5.0,0.0,0.0,0.0,0.0,0.0,0.0,0.0,0.5506448482731549,0.0,0.4837958420012822,0.0,0.0,0.0,0.0,0.0
0,0,,,,,,,,,,,,,,54211.0,,,,,,,,,,,,,,,,,,,,,,,,,,,,,,,,,,,,,,,,,,,,,,,,,,,,,,,,,,,,,,,,0.9762687203359002,6012.0,8.0,5313.0,9.0,2.0,0.0,186.0,0.0,0.1502632599690934,330.0,48134.0,2.0,3.0,1.0,8.0,0.0,0.0,0.0,0.0,0.0,0.0,0.0,0.9762764998408716,0.0,0.8034068072346806,0.0,0.0,0.0,0.0,0.0
0,0,,,,,,,,,,,,,,61018.0,,,,,,,,,,,,,,,,,,,,,,,,,,,,,,,,,,,,,,,,,,,,,,,,,,,,,,,,,,,,,,,,0.0005942419773194,25681.0,10.0,21983.0,9.0,2.0,0.0,160.0,6.0,0.1402791695861246,60.0,43278.0,3.0,3.0,2.0,10.0,0.0,0.0,0.0,0.0,0.0,0.0,0.0,0.0005982085975184,0.0,0.2372370464102379,0.0,0.0,0.0,0.0,0.0
0,0,,,,,,,,,,,,,,74848.0,,,,,,,,,,,,,,,,,,,,,,,,,,,,,,,,,,,,,,,,,,,,,,,,,,,,,,,,,,,,,,,,0.8465175840803844,6366.0,12.0,5697.0,9.0,1.0,0.0,170.0,5.0,0.7633607517735972,62.0,57083.0,3.0,3.0,1.0,12.0,0.0,0.0,0.0,0.0,0.0,0.0,0.0,0.8486844340596585,0.0,0.8121438903084971,0.0,0.0,0.0,0.0,0.0
0,0,,,,,,,,,,,,,,51331.0,,,,,,,,,,,,,,,,,,,,,,,,,,,,,,,,,,,,,,,,,,,,,,,,,,,,,,,,,,,,,,,,0.5556826988667816,20195.0,8.0,17202.0,14.0,2.0,0.0,387.0,66.0,0.301809878444113,419.0,16789.0,7.0,2.0,0.0,8.0,0.0,0.0,0.0,0.0,0.0,0.0,0.0,0.5506774926203373,0.0,0.5674242126885687,0.0,0.0,0.0,0.0,0.0
0,0,,,,,,,,,,,,,,24604.0,,,,,,,,,,,,,,,,,,,,,,,,,,,,,,,,,,,,,,,,,,,,,,,,,,,,,,,,,,,,,,,,0.8466632990322241,6622.0,4.0,5914.0,9.0,1.0,0.0,170.0,2.0,0.1065577649386534,432.0,24780.0,3.0,3.0,1.0,4.0,0.0,0.0,0.0,0.0,0.0,0.0,0.0,0.8488288365990523,0.0,0.7886675027465838,0.0,0.0,0.0,0.0,0.0
0,0,,,,,,,,,,,,,,82512.0,,,,,,,,,,,,,,,,,,,,,,,,,,,,,,,,,,,,,,,,,,,,,,,,,,,,,,,,,,,,,,,,0.4944623156303279,7765.0,14.0,6895.0,9.0,1.0,0.0,156.0,8.0,0.448097690417226,60.0,42408.0,4.0,3.0,2.0,14.0,0.0,0.0,0.0,0.0,0.0,0.0,0.0,0.4953603123441591,0.0,0.4779413927445511,0.0,0.0,0.0,0.0,0.0
0,0,,,,,,,,,,,,,,86458.0,,,,,,,,,,,,,,,,,,,,,,,,,,,,,,,,,,,,,,,,,,,,,,,,,,,,,,,,,,,,,,,,0.4944634750512899,7766.0,14.0,6896.0,9.0,1.0,0.0,156.0,2.0,0.3753802709766682,57.0,34317.0,4.0,3.0,2.0,14.0,0.0,0.0,0.0,0.0,0.0,0.0,0.0,0.4953616439614816,0.0,0.4774039322853299,0.0,0.0,0.0,0.0,0.0
0,0,,,,,,,,,,,,,,25562.0,,,,,,,,,,,,,,,,,,,,,,,,,,,,,,,,,,,,,,,,,,,,,,,,,,,,,,,,,,,,,,,,0.0014216062874156,32536.0,4.0,26546.0,9.0,2.0,0.0,147.0,1.0,0.2770712222855154,51.0,12529.0,3.0,3.0,2.0,4.0,0.0,0.0,0.0,0.0,0.0,0.0,0.0,0.0015126651778553,0.0,0.1248818702625901,0.0,0.0,0.0,0.0,0.0
0,0,,,,,,,,,,,,,,70938.0,,,,,,,,,,,,,,,,,,,,,,,,,,,,,,,,,,,,,,,,,,,,,,,,,,,,,,,,,,,,,,,,0.9673268688742164,7495.0,12.0,6475.0,9.0,2.0,0.0,158.0,4.0,0.1941183351447039,61.0,12088.0,2.0,3.0,1.0,12.0,0.0,0.0,0.0,0.0,0.0,0.0,0.0,0.9670489822728586,0.0,0.798748347851012,0.0,0.0,0.0,0.0,0.0
0,0,,,,,,,,,,,,,,84605.0,,,,,,,,,,,,,,,,,,,,,,,,,,,,,,,,,,,,,,,,,,,,,,,,,,,,,,,,,,,,,,,,0.4327509551673034,3015.0,14.0,2534.0,8.0,2.0,0.0,142.0,2.0,0.2822324053396892,49.0,17701.0,3.0,3.0,2.0,14.0,0.0,0.0,0.0,0.0,0.0,0.0,0.0,0.4364060121034833,0.0,0.5069858949247228,0.0,0.0,0.0,0.0,0.0
0,0,,,,,,,,,,,,,,71481.0,,,,,,,,,,,,,,,,,,,,,,,,,,,,,,,,,,,,,,,,,,,,,,,,,,,,,,,,,,,,,,,,0.9664711567477392,7231.0,12.0,6381.0,2.0,1.0,0.0,1087.0,1.0,0.1130618734925303,1435.0,27744.0,6.0,2.0,0.0,12.0,0.0,0.0,0.0,0.0,0.0,0.0,0.0,0.965485387634976,0.0,0.9455010272070398,0.0,0.0,0.0,0.0,0.0
0,0,,,,,,,,,,,,,,67126.0,,,,,,,,,,,,,,,,,,,,,,,,,,,,,,,,,,,,,,,,,,,,,,,,,,,,,,,,,,,,,,,,0.4601962442008435,3793.0,12.0,3251.0,9.0,2.0,0.0,138.0,3.0,0.1477646990886061,50.0,6552.0,3.0,4.0,1.0,11.0,0.0,0.0,0.0,0.0,0.0,0.0,0.0,0.4608404521718165,0.0,0.5301452567732405,0.0,0.0,0.0,0.0,0.0
